id,name,location_lat,location_lng,SW,NE,categoryIdOfVenue,categoryTypeName
4c619e0369a1c9b657b236a4,Restaurant Ved Vandet,55.6104863461,12.389648238,"55.6100000000,12.3871770868","55.6117966692,12.3903581746",4bf58dd8d48988d169941735,Australian Restaurant
532b1982498e87bb1041a41e,søhesten,55.6106274108,12.3895703219,"55.6100000000,12.3871770868","55.6117966692,12.3903581746",4bf58dd8d48988d1c4941735,Restaurant
593014d4610f0466fbcc8839,Segafredo Zanetti Danmark ApS,55.610253099999994,12.452497300000001,"55.6100000000,12.4501597385","55.6117966692,12.4533408263",4bf58dd8d48988d16d941735,Café
4cf7f8c2d3a8a1cdada2d943,Fiorentina Pizza,55.611095,12.600982,"55.6100000000,12.5990278244","55.6117966692,12.6022089122",4bf58dd8d48988d1ca941735,Pizza Place
4fa78930e4b0f90208e60c18,Breakfast.,55.610547,12.617028999999999,"55.6100000000,12.6162049113","55.6117966692,12.6193859990",4bf58dd8d48988d143941735,Breakfast Spot
4e0b010fae60e479ad9befbc,Restaurant Krabben,55.6128031899,12.396755159200001,"55.6116170022,12.3957666927","55.6134136714,12.3989479116",4bf58dd8d48988d1c4941735,Restaurant
5b684ec4037be1002ca4fdb0,Søstrene P,55.612442,12.397272000000001,"55.6116170022,12.3957666927","55.6134136714,12.3989479116",4bf58dd8d48988d16d941735,Café
4dbc294e43a1d8504b83432f,Træfpunktet,55.613963996,12.3702753327,"55.6132340045,12.3700000000","55.6150306736,12.3731813501",4bf58dd8d48988d1ca941735,Pizza Place
5b5dc0ec56c89f002cbb4451,Café StrandSus,55.61384399999999,12.422414,"55.6132340045,12.4215355105","55.6150306736,12.4247168606",4bf58dd8d48988d16d941735,Café
4e09bfd37d8b2a0180695398,Trucker Grill,55.614437359300005,12.4690451887,"55.6132340045,12.4673448531","55.6150306736,12.4705262032",4bf58dd8d48988d16e941735,Fast Food Restaurant
58721358dfa6ff39ad2ac71a,Q8,55.6147329,12.47037755,"55.6132340045,12.4673448531","55.6150306736,12.4705262032",4bf58dd8d48988d113951735,Gas Station
57b6a191498e6b1fbb0a384b,Bon Apetit.Factory,55.61387,12.473116000000001,"55.6132340045,12.4702079370","55.6150306736,12.4733892871",4bf58dd8d48988d16e941735,Fast Food Restaurant
515c59d9e4b019bdd003b24f,Personalerestauranten,55.6147224841,12.4755709306,"55.6132340045,12.4730710209","55.6150306736,12.4762523711",4bf58dd8d48988d1c4941735,Restaurant
55be1afe498e9f5df44c4f08,Ostekagehuset,55.6147460938,12.4816160202,"55.6132340045,12.4787971888","55.6150306736,12.4819785389",4bf58dd8d48988d16a941735,Bakery
4bb47d1f49bdc9b602d10c10,Traktørstedet Vestamager,55.614497,12.574453,"55.6132340045,12.5732789580","55.6150306736,12.5764603081",4bf58dd8d48988d1c4941735,Restaurant
4b001233f964a520a23a22e3,Flyvergrillen,55.613769665,12.6300722277,"55.6132340045,12.6276775523","55.6150306736,12.6308589025",4bf58dd8d48988d16e941735,Fast Food Restaurant
4db335d9fa8c350240c8b818,Ye Sushi,55.615524,12.489674,"55.6148510067,12.4873912815","55.6166476759,12.4905727628",4bf58dd8d48988d1d2941735,Sushi Restaurant
4c2a16b8ce3fc928aab76f88,Café 8Tallet,55.6164946605,12.5706315123,"55.6148510067,12.5675609372","55.6166476759,12.5707424185",4bf58dd8d48988d16d941735,Café
4baf40f3f964a520cef33be3,Tobano pizzeria & grill,55.616189095900005,12.5860426444,"55.6148510067,12.5847401491","55.6166476759,12.5879216304",4bf58dd8d48988d1ca941735,Pizza Place
4c628272de1b2d7fc759e270,Pølsevognen,55.6164123276,12.611714793900001,"55.6148510067,12.6105089670","55.6166476759,12.6136904483",4bf58dd8d48988d1cb941735,Food Truck
53dd1c51498e6a427f347f92,manolo,55.6180040353,12.4112619703,"55.6164680090,12.4100864810","55.6182646781,12.4132680936",4bf58dd8d48988d1c9941735,Ice Cream Shop
4da1b2259aa4721e16c2ff19,Mandalay,55.6176175258,12.4164667153,"55.6164680090,12.4158131212","55.6182646781,12.4189947337",4bf58dd8d48988d1c9941735,Ice Cream Shop
5061cfd1e4b0034de572c3e5,Lucky Kids Deep Pan Og Mexicansk Pizza,55.617895,12.420601,"55.6164680090,12.4186764412","55.6182646781,12.4218580538",4bf58dd8d48988d1ca941735,Pizza Place
509b67d6e4b080289fa2aebb,Kervan,55.6175292932,12.5721025784,"55.6164680090,12.5704324051","55.6182646781,12.5736140176",4bf58dd8d48988d1c7941735,Snack Place
4d51bd47c305b60c9b10931e,Foodshop No.55,55.617158993800004,12.573016107599999,"55.6164680090,12.5704324051","55.6182646781,12.5736140176",4bf58dd8d48988d16d941735,Café
51d45063498e43d28857adb8,Ye Sushi,55.6167274654,12.585787511600001,"55.6164680090,12.5847490054","55.6182646781,12.5879306180",4bf58dd8d48988d1d2941735,Sushi Restaurant
4e42cda77d8bbc6600255908,Naked Fish,55.6168106781,12.585509910899999,"55.6164680090,12.5847490054","55.6182646781,12.5879306180",4bf58dd8d48988d145941735,Chinese Restaurant
4b6990d1f964a520a4a72be3,Johns Kagehus,55.6173566692,12.5924273933,"55.6164680090,12.5904756456","55.6182646781,12.5936572581",4bf58dd8d48988d16a941735,Bakery
4c6eac2bd5c3a1cd21efc82b,MariMar pizza,55.6183340324,12.405896435999999,"55.6180850112,12.4043612580","55.6198816804,12.4075430018",4bf58dd8d48988d1ca941735,Pizza Place
4e638462d164ddd5e638e519,Griseriet.dk,55.619431999999996,12.482443,"55.6180850112,12.4816740886","55.6198816804,12.4848558324",4bf58dd8d48988d1c4941735,Restaurant
53527bc8498e955480dc60f8,regnbue isen,55.618665,12.571685,"55.6180850112,12.5704406719","55.6198816804,12.5736224156",4bf58dd8d48988d1c9941735,Ice Cream Shop
506197dce4b06cf1a21e33ef,Rennys Kitchen,55.618326,12.571666,"55.6180850112,12.5704406719","55.6198816804,12.5736224156",4bf58dd8d48988d16d941735,Café
4c559f57479fc92891112d95,French Chicken,55.6195271518,12.585875981300001,"55.6180850112,12.5847578627","55.6198816804,12.5879396065",4bf58dd8d48988d16e941735,Fast Food Restaurant
4e368555ae60d86c3aca39d8,Solo Pizza,55.62104012020001,12.4228691137,"55.6197020135,12.4215440130","55.6214986826,12.4247258880",4bf58dd8d48988d1ca941735,Pizza Place
50ee96cde4b0e87d58f8f8ca,Metroselskabets buffet,55.621239815699994,12.577200284100002,"55.6197020135,12.5761760520","55.6214986826,12.5793579271",503288ae91d4c4b30a586d67,Afghan Restaurant
4c57b8c4cc96c9b659b1792e,Det Gyldne Brød,55.62302044,12.37576485,"55.6213190157,12.3728636744","55.6231156849,12.3760456807",4bf58dd8d48988d16a941735,Bakery
4e21d83c62e1964dbb6b7ee5,McDonald's,55.623017777,12.390149761099998,"55.6213190157,12.3871820464","55.6231156849,12.3903640527",4bf58dd8d48988d16e941735,Fast Food Restaurant
4c5983776407d13ab94fb228,Kaff'ka,55.6229154574,12.3890225649,"55.6213190157,12.3871820464","55.6231156849,12.3903640527",4bf58dd8d48988d16d941735,Café
4cb20e37db32f04dc92ecd4d,Domino's Pizza,55.6229676209,12.389793573499999,"55.6213190157,12.3871820464","55.6231156849,12.3903640527",4bf58dd8d48988d1ca941735,Pizza Place
4cb498fc1463a1439d30bca9,Hao Hua,55.62285101,12.3881809,"55.6213190157,12.3871820464","55.6231156849,12.3903640527",4bf58dd8d48988d145941735,Chinese Restaurant
5266a43911d2a17197b8e4e2,Kina cafeteria,55.622,12.422035000000001,"55.6213190157,12.4215461392","55.6231156849,12.4247281455",4bf58dd8d48988d16c941735,Burger Joint
4dbeec225da3ff58ec85614f,Royal Pizza,55.622621845699996,12.4775278734,"55.6213190157,12.4759559528","55.6231156849,12.4791379591",4bf58dd8d48988d1ca941735,Pizza Place
5919d6cae1f0aa603aac1eeb,Efe's Kebab & Burger,55.623107999999995,12.484689,"55.6213190157,12.4816833016","55.6231156849,12.4848653079",4bf58dd8d48988d16e941735,Fast Food Restaurant
4c7ac611dbaa76b070c8234b,Løjtehus Restaurant,55.6228519637,12.621812883699999,"55.6213190157,12.6191396727","55.6231156849,12.6223216790",4bf58dd8d48988d1c6941735,Scandinavian Restaurant
4c5c4dda85a1e21e76405611,Mors Crib,55.6223,12.623281,"55.6213190157,12.6220033471","55.6231156849,12.6251853534",4bf58dd8d48988d10c941735,French Restaurant
593a47646a59504d3237e7f7,Lagkagehuset Vallensbæk,55.62395,12.387994,"55.6229360180,12.3871827552","55.6247326871,12.3903648928",4bf58dd8d48988d16a941735,Bakery
59303ea4cf72a063b33dc825,Yobi Sushi,55.624026,12.388592,"55.6229360180,12.3871827552","55.6247326871,12.3903648928",4bf58dd8d48988d1c4941735,Restaurant
4c585050b7a31b8d6d3852da,Bagel King,55.623803,12.387637495999998,"55.6229360180,12.3871827552","55.6247326871,12.3903648928",4bf58dd8d48988d179941735,Bagel Shop
4c8d3801ed3ab60c31a26e21,Restaurant Wallenz Pizzaria,55.6238526454,12.387828615799998,"55.6229360180,12.3871827552","55.6247326871,12.3903648928",4bf58dd8d48988d1ca941735,Pizza Place
557844cd498e4c5e760c28fb,Expressen1 Pizzeria & Grill,55.624001016099996,12.387868302000001,"55.6229360180,12.3871827552","55.6247326871,12.3903648928",4f04af1f2fb6e1c99f3db0bb,Turkish Restaurant
54c7958e498ef486aa082b4f,Acozinha ApS,55.6232181159,12.391942441500001,"55.6229360180,12.3900465477","55.6247326871,12.3932286853",52e81612bcbc57f1066b79f4,Buffet
504619c1e4b09303cb85d164,hyggekrogen,55.624370575,12.4336910248,"55.6229360180,12.4330034357","55.6247326871,12.4361855733",4bf58dd8d48988d1c7941735,Snack Place
57e00f3c498ed5ed8f524a4d,Burger & Shawarma,55.62314,12.484655,"55.6229360180,12.4816879088","55.6247326871,12.4848700463",4bf58dd8d48988d16c941735,Burger Joint
59df93013b4e007253e91464,Absolut. Bar,55.624538,12.573115,"55.6229360180,12.5704654773","55.6247326871,12.5736476148",4bf58dd8d48988d11a941735,Other Nightlife
4e0da48518a8bf9784c458cf,La Maison,55.62409558270001,12.6044222334,"55.6229360180,12.6019671951","55.6247326871,12.6051493327",4bf58dd8d48988d1ca941735,Pizza Place
4c87ced42a1f6dcb3b0bc5ee,Bella Italia,55.6247236204,12.6248608536,"55.6229360180,12.6220137428","55.6247326871,12.6251958804",4bf58dd8d48988d110941735,Italian Restaurant
4ca1b83f19e4236a11236c89,Café Perlen,55.626222999999996,12.401644000000001,"55.6245530202,12.3986391068","55.6263496894,12.4018213756",4bf58dd8d48988d16d941735,Café
59b2af1fa6ec9849b35c7926,Burger Station,55.62525,12.454239999999999,"55.6245530202,12.4530534096","55.6263496894,12.4562356785",4bf58dd8d48988d16c941735,Burger Joint
4f9ec453e4b0614494a4d3db,Oasen Kebab,55.6263358514,12.453925823699999,"55.6245530202,12.4530534096","55.6263496894,12.4562356785",4bf58dd8d48988d16e941735,Fast Food Restaurant
4da6d0e36a230db30eca21b4,Café E,55.6260104167,12.468236447799999,"55.6245530202,12.4673729630","55.6263496894,12.4705552319",4bf58dd8d48988d16d941735,Café
4eab0d2d8b8180c90bac0eb7,Restaurant Halvleg,55.6249429977,12.4732569525,"55.6245530202,12.4702368737","55.6263496894,12.4734191426",4bf58dd8d48988d1c4941735,Restaurant
4db84e4c04376df9977213dd,Hvidovre - København Jagtforening,55.625424,12.496136,"55.6245530202,12.4931481591","55.6263496894,12.4963304280",4d4b7105d754a06374d81259,Food
55795ca2498e34d6337feeae,Spisestedet Troldanden,55.6258386329,12.495833713900002,"55.6245530202,12.4931481591","55.6263496894,12.4963304280",4bf58dd8d48988d1c4941735,Restaurant
57922beb498ea411957e5c89,La Strada Is,55.626324,12.498458,"55.6245530202,12.4960120698","55.6263496894,12.4991943386",4bf58dd8d48988d1c9941735,Ice Cream Shop
57bdd8b7498e301946e513eb,Susets Køkken,55.625243999999995,12.497041000000001,"55.6245530202,12.4960120698","55.6263496894,12.4991943386",4bf58dd8d48988d1c6941735,Scandinavian Restaurant
5aef81aa2632ec002c395d7f,funzone,55.625824,12.574175,"55.6245530202,12.5733376581","55.6263496894,12.5765199269",4bf58dd8d48988d11d941735,Sports Bar
5c2ba091d03360002c7bffa9,Burger King - Ørestad,55.62607,12.57761,"55.6245530202,12.5762015688","55.6263496894,12.5793838376",4bf58dd8d48988d16e941735,Fast Food Restaurant
51d2922b498e525a4bbf3fa8,Kagehuset,55.6258,12.587588,"55.6245530202,12.5847933008","55.6263496894,12.5879755696",4bf58dd8d48988d16a941735,Bakery
506726d7e4b02bd343fc9bce,India Gate,55.625012283900006,12.604324451099998,"55.6245530202,12.6019767649","55.6263496894,12.6051590337",4bf58dd8d48988d10f941735,Indian Restaurant
5b76a96ac9f907002cc69890,Landevejsgrillen,55.625808,12.62453,"55.6245530202,12.6220241396","55.6263496894,12.6252064084",4bf58dd8d48988d16e941735,Fast Food Restaurant
58c13113dfa6ff70d6aa0ebb,The world's smallest Starbucks,55.625431000000006,12.649818,"55.6245530202,12.6477993357","55.6263496894,12.6509816045",4bf58dd8d48988d1e0931735,Coffee Shop
53e26961498ed727dca65add,Frihedens pizzaria,55.627288,12.479512,"55.6261700224,12.4788330957","55.6279666916,12.4820154959",4bf58dd8d48988d1ca941735,Pizza Place
5be322e8c58ed7002c9f7034,Steff's Place,55.62669399999999,12.483936,"55.6261700224,12.4816971245","55.6279666916,12.4848795247",4bf58dd8d48988d16f941735,Hot Dog Joint
4bfac0574a67c928adb128cf,Kong Kebab,55.626695353500004,12.4859831354,"55.6261700224,12.4845611534","55.6279666916,12.4877435535",4bf58dd8d48988d16e941735,Fast Food Restaurant
4dae9bfe4b229076786a4fc0,Cafe Hannemanns Alle,55.627102,12.570605,"55.6261700224,12.5676179896","55.6279666916,12.5708003897",4bf58dd8d48988d16d941735,Café
4e4e3ba1fa7626401e97d359,LA Diner,55.627832204700006,12.571477921400001,"55.6261700224,12.5704820184","55.6279666916,12.5736644185",4bf58dd8d48988d147941735,Diner
578e7423498eb6c5f3009817,Restaurant BARK,55.627285,12.577581,"55.6261700224,12.5762100761","55.6279666916,12.5793924762",4bf58dd8d48988d1c4941735,Restaurant
4bf2c9f320960f47d9a76e2f,STORM Restaurant,55.6268518404,12.5768479203,"55.6261700224,12.5762100761","55.6279666916,12.5793924762",4bf58dd8d48988d1c6941735,Scandinavian Restaurant
57027f0ccd1003e8554b66cd,Orango Coffee,55.627430000000004,12.578114,"55.6261700224,12.5762100761","55.6279666916,12.5793924762",4bf58dd8d48988d16d941735,Café
5150738fe4b01f10cf9ecc6d,Steakhouse,55.627596999999994,12.576979,"55.6261700224,12.5762100761","55.6279666916,12.5793924762",4bf58dd8d48988d1cc941735,Steakhouse
4dae4f9ffa8cf04fbdfd5e25,Café Hannemann,55.627349413299996,12.579355820999998,"55.6261700224,12.5762100761","55.6279666916,12.5793924762",4bf58dd8d48988d16d941735,Café
4d9c2ca2f1f88cfaa85aed0e,Rambøll Køkkenet,55.626819,12.57949,"55.6261700224,12.5790741049","55.6279666916,12.5822565051",4bf58dd8d48988d147941735,Diner
5bddebb88b98fd002c5c4dd5,leonards restaurant,55.627832999999995,12.604619,"55.6261700224,12.6019863356","55.6279666916,12.6051687357",4bf58dd8d48988d1c4941735,Restaurant
4f2eb742e4b0620357dfa077,Super Bowl Central - Homeedition,55.6279529149,12.6051980432,"55.6261700224,12.6048503644","55.6279666916,12.6080327646",4bf58dd8d48988d1df931735,BBQ Joint
4fad0a69e4b06d18cc35cff1,København Café,55.627830118,12.64239507,"55.6261700224,12.6392187104","55.6279666916,12.6424011106",4bf58dd8d48988d16d941735,Café
55f1a436498e1f98f01c55b5,Segafredo Zanetti,55.6273053949,12.6421208144,"55.6261700224,12.6392187104","55.6279666916,12.6424011106",4bf58dd8d48988d16f941735,Hot Dog Joint
50336e7ee4b0a4a9789df2c8,grabandfly,55.6275889535,12.6453398648,"55.6261700224,12.6449467681","55.6279666916,12.6481291682",4bf58dd8d48988d1e0931735,Coffee Shop
582225e303fcb4757cdd498b,Starbucks Coffee Machine Gate B6,55.627802,12.645439999999999,"55.6261700224,12.6449467681","55.6279666916,12.6481291682",4bf58dd8d48988d16d941735,Café
522b02b611d22ffc2bec99a0,Copenhagen Cooking,55.6266052555,12.645292626,"55.6261700224,12.6449467681","55.6279666916,12.6481291682",4bf58dd8d48988d1c4941735,Restaurant
5170e98de4b0e30bab4577c9,Copenhagen Coffee,55.627257558500006,12.6454240131,"55.6261700224,12.6449467681","55.6279666916,12.6481291682",4bf58dd8d48988d1e0931735,Coffee Shop
59777d3ac824ae0a7d1cb6d3,Moritz,55.62693,12.648278,"55.6261700224,12.6478107969","55.6279666916,12.6509931971",4bf58dd8d48988d1e0931735,Coffee Shop
53f47f9e498e02e3a49c52f7,hallohello,55.626940000000005,12.648284,"55.6261700224,12.6478107969","55.6279666916,12.6509931971",4bf58dd8d48988d1c4941735,Restaurant
4e18ce976284ea7246fcb4b3,Kødfeber,55.6283333,12.394093,"55.6277870247,12.3929131760","55.6295836938,12.3960957075",4bf58dd8d48988d1c6941735,Scandinavian Restaurant
4e99b0649a52ceeb884c29e5,Wongs Grill,55.6285162455,12.4812541367,"55.6277870247,12.4788375861","55.6295836938,12.4820201176",4bf58dd8d48988d16c941735,Burger Joint
4bba09cfb35776b0776dca01,Apex,55.628028,12.48677,"55.6277870247,12.4845658801","55.6295836938,12.4877484116",4bf58dd8d48988d1ca941735,Pizza Place
4c566b947329c928d2a98c80,Claes Bageri,55.6285926424,12.4862662494,"55.6277870247,12.4845658801","55.6295836938,12.4877484116",4bf58dd8d48988d16a941735,Bakery
4ff310c2e4b086f17853885c,Claes' Isbar,55.628776550299996,12.4862556458,"55.6277870247,12.4845658801","55.6295836938,12.4877484116",4bf58dd8d48988d1c9941735,Ice Cream Shop
4e23054cb0fbdf9ba7b9bc13,Apex Pizzaria,55.628732254,12.4861765681,"55.6277870247,12.4845658801","55.6295836938,12.4877484116",4bf58dd8d48988d16e941735,Fast Food Restaurant
55d20f7b498e4eca35c407a9,Gorm's Pizza,55.62930124020001,12.5786107779,"55.6277870247,12.5762185842","55.6295836938,12.5794011157",4bf58dd8d48988d1ca941735,Pizza Place
56b628f1498ecb17d343f043,Mediterranean Kitchen,55.629571,12.578478,"55.6277870247,12.5762185842","55.6295836938,12.5794011157",4bf58dd8d48988d1c0941735,Mediterranean Restaurant
5049c177e4b08baee5a04928,Ørestad Sandwich Kebab,55.629210023199995,12.579416800499999,"55.6277870247,12.5790827312","55.6295836938,12.5822652627",4bf58dd8d48988d1cb941735,Food Truck
4c289d8b9fb5d13aa7c79957,Jensens Mad,55.629115114300006,12.6228534395,"55.6277870247,12.6220449363","55.6295836938,12.6252274678",4bf58dd8d48988d16d941735,Café
4bd740cb5cf276b0a6de9a00,Milas,55.628223,12.622943,"55.6277870247,12.6220449363","55.6295836938,12.6252274678",4bf58dd8d48988d16e941735,Fast Food Restaurant
529dbe22498e81414245dd72,Cofoco Airport Solution,55.629491844899995,12.6229810574,"55.6277870247,12.6220449363","55.6295836938,12.6252274678",4bf58dd8d48988d128941735,Cafeteria
4ba201f9f964a5201bd637e3,O'Learys,55.628728858,12.644893527,"55.6277870247,12.6420939653","55.6295836938,12.6452764968",4bf58dd8d48988d14e941735,American Restaurant
5b55ea6c840fc2002c682470,Cock’s & Cows,55.628692,12.644455,"55.6277870247,12.6420939653","55.6295836938,12.6452764968",4bf58dd8d48988d16c941735,Burger Joint
4b55ecd9f964a520c9f627e3,Starbucks,55.628747028999996,12.645092010499999,"55.6277870247,12.6420939653","55.6295836938,12.6452764968",4bf58dd8d48988d1e0931735,Coffee Shop
4fe828466b7488235068dbb2,MASH Steakhouse,55.628820798599996,12.644557577,"55.6277870247,12.6420939653","55.6295836938,12.6452764968",4bf58dd8d48988d1cc941735,Steakhouse
5b98c08964c8e1002ceb8419,Arket Café,55.628765,12.644111,"55.6277870247,12.6420939653","55.6295836938,12.6452764968",4bf58dd8d48988d16d941735,Café
5b61495d535d6f002c1509b2,Lêlê Street Kitchen,55.628654000000004,12.644495,"55.6277870247,12.6420939653","55.6295836938,12.6452764968",4bf58dd8d48988d14a941735,Vietnamese Restaurant
58170aaf38facd634cab1c2a,O'Learys,55.6291787467,12.644899632000001,"55.6277870247,12.6420939653","55.6295836938,12.6452764968",4bf58dd8d48988d14e941735,American Restaurant
4d15748dbb64224b3698b465,Airport Deli,55.6288374329,12.6443719519,"55.6277870247,12.6420939653","55.6295836938,12.6452764968",4bf58dd8d48988d146941735,Deli / Bodega
5bec117704d1ae675569aca9,A. C. Perch’s Teashop,55.62855,12.645082,"55.6277870247,12.6420939653","55.6295836938,12.6452764968",4bf58dd8d48988d1dc931735,Tea Room
5124769ee4b09cd3cece6ddc,Juice Bar,55.6288809196,12.6443070073,"55.6277870247,12.6420939653","55.6295836938,12.6452764968",4bf58dd8d48988d112941735,Juice Bar
568d61fa498ee07f2e8564cd,grabandfly,55.6288884793,12.6441559055,"55.6277870247,12.6420939653","55.6295836938,12.6452764968",4bf58dd8d48988d16f941735,Hot Dog Joint
51ebfddb498e1f30b5b9542c,YamYam,55.629309821499994,12.644867993800002,"55.6277870247,12.6420939653","55.6295836938,12.6452764968",4bf58dd8d48988d142941735,Asian Restaurant
59ee1db1840fc25112ace2d1,Somelier,55.628130000000006,12.642965,"55.6277870247,12.6420939653","55.6295836938,12.6452764968",4bf58dd8d48988d1c4941735,Restaurant
58d20bd38ab03f3add75943c,HMS HOST Autogrill Grab & fly T2,55.628199,12.642776,"55.6277870247,12.6420939653","55.6295836938,12.6452764968",4bf58dd8d48988d1c5941735,Sandwich Place
4ddea8b1227106a58b90ff35,Hvordan Skal,55.629073999999996,12.644217999999999,"55.6277870247,12.6420939653","55.6295836938,12.6452764968",4bf58dd8d48988d1cc941735,Steakhouse
4d6cfd39183a236aa9245a3a,Lagkagehuset,55.6284617612,12.646691354000001,"55.6277870247,12.6449581123","55.6295836938,12.6481406438",4bf58dd8d48988d16a941735,Bakery
4c1f148e920076b0204ac4e9,JOE & THE JUICE,55.6283088171,12.647929661900001,"55.6277870247,12.6449581123","55.6295836938,12.6481406438",4bf58dd8d48988d112941735,Juice Bar
5a82b634fd9d733314fd1cd6,Pret A Manger,55.6290482649,12.646277143299999,"55.6277870247,12.6449581123","55.6295836938,12.6481406438",4bf58dd8d48988d1c5941735,Sandwich Place
50d1a1f8e4b0935b08ce5196,Le Sommelier,55.628675,12.645622999999999,"55.6277870247,12.6449581123","55.6295836938,12.6481406438",4bf58dd8d48988d116941735,Bar
554b3488498e23b054ceea83,Aamans Copenhagen Airport,55.6283673637,12.6476356139,"55.6277870247,12.6449581123","55.6295836938,12.6481406438",4bf58dd8d48988d1c6941735,Scandinavian Restaurant
5b2f59000d8a0f002c65a609,Wok,55.629012,12.6471,"55.6277870247,12.6449581123","55.6295836938,12.6481406438",4bf58dd8d48988d149941735,Thai Restaurant
59d34ea75ba0467e9268ef99,Riccos kaffebar,55.628985,12.64776,"55.6277870247,12.6449581123","55.6295836938,12.6481406438",4bf58dd8d48988d16d941735,Café
514aa5bce4b0b8f969b39da1,Baresso Coffee,55.6286549504,12.6456662353,"55.6277870247,12.6449581123","55.6295836938,12.6481406438",4bf58dd8d48988d1e0931735,Coffee Shop
5be871fedb2aeb002cf7a452,Espresso House,55.628578000000005,12.645798,"55.6277870247,12.6449581123","55.6295836938,12.6481406438",4bf58dd8d48988d1e0931735,Coffee Shop
4ba2498df964a520ffe937e3,Restaurant København,55.628389831599996,12.647609918099999,"55.6277870247,12.6449581123","55.6295836938,12.6481406438",4bf58dd8d48988d1c6941735,Scandinavian Restaurant
5a0db0e4bb2a4740242346c7,42RAW,55.6289530247,12.647595631600002,"55.6277870247,12.6449581123","55.6295836938,12.6481406438",4bf58dd8d48988d1d3941735,Vegetarian / Vegan Restaurant
4b8520c7f964a5201d4d31e3,Eyecon Bar,55.628667799999995,12.6454425027,"55.6277870247,12.6449581123","55.6295836938,12.6481406438",4bf58dd8d48988d116941735,Bar
50531c0ae4b0e7a976a9c6cb,CPH Nordic dining,55.628428,12.647164,"55.6277870247,12.6449581123","55.6295836938,12.6481406438",4bf58dd8d48988d1c6941735,Scandinavian Restaurant
5c4fec400d173f002caef6b9,Smørrebrød,55.62829,12.647758999999999,"55.6277870247,12.6449581123","55.6295836938,12.6481406438",4bf58dd8d48988d1c6941735,Scandinavian Restaurant
4e9eeb4530f8fb67761fff05,The Sportsbar,55.628640546899994,12.6453752618,"55.6277870247,12.6449581123","55.6295836938,12.6481406438",4bf58dd8d48988d14e941735,American Restaurant
5024d95ce4b0ea30b59e5d7c,Ars,55.6287432,12.645962800000001,"55.6277870247,12.6449581123","55.6295836938,12.6481406438",4bf58dd8d48988d120951735,Food Court
4c412807cc410f47f0e1aa61,Crystal,55.628611,12.646355,"55.6277870247,12.6449581123","55.6295836938,12.6481406438",4bf58dd8d48988d1e0931735,Coffee Shop
4af7dcc9f964a5206e0a22e3,Starbucks,55.6286311787,12.6498431321,"55.6277870247,12.6478222593","55.6295836938,12.6510047908",4bf58dd8d48988d1e0931735,Coffee Shop
538fef8f498efe9a0e6aab5c,JOE & THE JUICE,55.628186,12.649701,"55.6277870247,12.6478222593","55.6295836938,12.6510047908",4bf58dd8d48988d112941735,Juice Bar
5524ab4d498e087558161fa3,Gorm's,55.6284345658,12.6483283271,"55.6277870247,12.6478222593","55.6295836938,12.6510047908",4bf58dd8d48988d1ca941735,Pizza Place
4dc6c199d22dafda2fc4e5d8,Starbucks,55.6282589897,12.6491520767,"55.6277870247,12.6478222593","55.6295836938,12.6510047908",4bf58dd8d48988d1e0931735,Coffee Shop
525a299f498e4ee0b4d93a59,Lagkagehuset,55.6281831263,12.6500064426,"55.6277870247,12.6478222593","55.6295836938,12.6510047908",4bf58dd8d48988d16a941735,Bakery
54f4a3cb498ef304a8cfcd37,Yo! Sushi,55.6282955349,12.6488856203,"55.6277870247,12.6478222593","55.6295836938,12.6510047908",4bf58dd8d48988d1d2941735,Sushi Restaurant
4b40d23bf964a52096bb25e3,Burger King,55.629396015699996,12.6493121403,"55.6277870247,12.6478222593","55.6295836938,12.6510047908",4bf58dd8d48988d16e941735,Fast Food Restaurant
580b9ad638fa2adcc2a22550,Paté Paté,55.628534699300005,12.6492239252,"55.6277870247,12.6478222593","55.6295836938,12.6510047908",4bf58dd8d48988d1db931735,Tapas Restaurant
4cc82cd594e1a0933ed0958b,Steff's Place,55.6281501634,12.650037465999999,"55.6277870247,12.6478222593","55.6295836938,12.6510047908",4bf58dd8d48988d16f941735,Hot Dog Joint
4bffbc1cf61ea593fea5ea13,Caviar House & Prunier,55.6282695073,12.649142294,"55.6277870247,12.6478222593","55.6295836938,12.6510047908",4bf58dd8d48988d1ce941735,Seafood Restaurant
55f19eb1498ede497c34dc0b,Murphy's,55.628251758699996,12.6497761692,"55.6277870247,12.6478222593","55.6295836938,12.6510047908",52e81612bcbc57f1066b7a06,Irish Pub
5a61dff965cdf8350b8359d9,Joe & The Juice - Terminal 2,55.628190000000004,12.650066,"55.6277870247,12.6478222593","55.6295836938,12.6510047908",4bf58dd8d48988d112941735,Juice Bar
58be4dba5cab2f2d2cdea14f,ReTreat,55.6283814872,12.6483150798,"55.6277870247,12.6478222593","55.6295836938,12.6510047908",4bf58dd8d48988d1e0931735,Coffee Shop
59c2511881635b51ab7da513,JOE & THE JUICE,55.628739,12.648639,"55.6277870247,12.6478222593","55.6295836938,12.6510047908",4bf58dd8d48988d112941735,Juice Bar
4ba7cfeef964a5207bb539e3,The Bar,55.6285252187,12.649220616300001,"55.6277870247,12.6478222593","55.6295836938,12.6510047908",4bf58dd8d48988d116941735,Bar
5810d15638fa37ea26e33721,Crazy Baguette,55.62834399999999,12.649297,"55.6277870247,12.6478222593","55.6295836938,12.6510047908",4bf58dd8d48988d1c5941735,Sandwich Place
4b74deb5f964a5200ff62de3,Prego,55.628273245,12.648633083800002,"55.6277870247,12.6478222593","55.6295836938,12.6510047908",4bf58dd8d48988d110941735,Italian Restaurant
50d297e8e4b0126217ae9f34,Redtailend,55.629502296000005,12.648927976700001,"55.6277870247,12.6478222593","55.6295836938,12.6510047908",4bf58dd8d48988d16d941735,Café
4d6fc91a0187236a861ba1ba,Seafoodbar Kbh Airport,55.6285650158,12.649041,"55.6277870247,12.6478222593","55.6295836938,12.6510047908",4bf58dd8d48988d1ce941735,Seafood Restaurant
5119e722e4b09cd79e8e0f48,Barista Nespresso,55.628119999999996,12.649938,"55.6277870247,12.6478222593","55.6295836938,12.6510047908",4bf58dd8d48988d16d941735,Café
52ada34511d20648b78739f2,Kaffe Kværnen,55.629012,12.648441,"55.6277870247,12.6478222593","55.6295836938,12.6510047908",4bf58dd8d48988d1e0931735,Coffee Shop
537f4b3d498eb6fba388633a,Balik Sushi,55.628313,12.649106,"55.6277870247,12.6478222593","55.6295836938,12.6510047908",4bf58dd8d48988d1d2941735,Sushi Restaurant
4b1004c4f964a520896723e3,Yam Yam To Go,55.628317602399996,12.6488392082,"55.6277870247,12.6478222593","55.6295836938,12.6510047908",4bf58dd8d48988d145941735,Chinese Restaurant
538993c0498e1afc1638f19c,Kaffekværnen @ Bagageleveringen Belt 3,55.629037376999996,12.6482064716,"55.6277870247,12.6478222593","55.6295836938,12.6510047908",4bf58dd8d48988d1e0931735,Coffee Shop
4c092c4fffb8c9b63c6a6961,Seafood Bar Lufthavnen,55.6291709774,12.649028749500001,"55.6277870247,12.6478222593","55.6295836938,12.6510047908",4bf58dd8d48988d1ce941735,Seafood Restaurant
4bf2a2f2a32e20a1116cd557,JOE & THE JUICE,55.6306473,12.575852900000001,"55.6294040269,12.5733628281","55.6312006961,12.5765454909",4bf58dd8d48988d112941735,Juice Bar
54b519c6498ec5f2335b2433,ReTreat,55.6305,12.576279,"55.6294040269,12.5733628281","55.6312006961,12.5765454909",4bf58dd8d48988d179941735,Bagel Shop
4b66f38bf964a520e7312be3,Frellsen Chokolade,55.6303695249,12.5760294775,"55.6294040269,12.5733628281","55.6312006961,12.5765454909",52f2ab2ebcbc57f1066b8b31,Chocolate Shop
4f4625ffe4b0068c28b04ccc,Baresso Coffee,55.630245144700005,12.576621118699999,"55.6294040269,12.5762270933","55.6312006961,12.5794097561",4bf58dd8d48988d1e0931735,Coffee Shop
50b71786e4b0b43909ea67c0,Starbucks,55.630929846499996,12.5765515075,"55.6294040269,12.5762270933","55.6312006961,12.5794097561",4bf58dd8d48988d1e0931735,Coffee Shop
569929aa498e9c75520a74fe,Dalle Valle,55.6298032087,12.5785877152,"55.6294040269,12.5762270933","55.6312006961,12.5794097561",4bf58dd8d48988d1c4941735,Restaurant
4da0494be8a6721e75d333a5,Bistro Quick Food,55.63114300000001,12.576916,"55.6294040269,12.5762270933","55.6312006961,12.5794097561",4bf58dd8d48988d16f941735,Hot Dog Joint
4c7789acf24737042d5766eb,Sunset Boulevard,55.6300121365,12.578149270399999,"55.6294040269,12.5762270933","55.6312006961,12.5794097561",4bf58dd8d48988d1c5941735,Sandwich Place
580b95a138fa564f8dc45cb6,Espresso House,55.630005476499996,12.5778808996,"55.6294040269,12.5762270933","55.6312006961,12.5794097561",4bf58dd8d48988d1e0931735,Coffee Shop
4c8f99fddaa937048f1f56b1,Nachos Mexican Restaurant,55.6300948424,12.5782729091,"55.6294040269,12.5762270933","55.6312006961,12.5794097561",4bf58dd8d48988d1c1941735,Mexican Restaurant
4b6458d8f964a52047ac2ae3,Burger King,55.6300192294,12.577791498900002,"55.6294040269,12.5762270933","55.6312006961,12.5794097561",4bf58dd8d48988d16e941735,Fast Food Restaurant
4c0553dc0d0e0f471f2d059a,KFC,55.629999786000006,12.5779385128,"55.6294040269,12.5762270933","55.6312006961,12.5794097561",4bf58dd8d48988d16e941735,Fast Food Restaurant
4b631ba5f964a52092632ae3,The American Restaurant & Diner,55.629983958800004,12.5780208378,"55.6294040269,12.5762270933","55.6312006961,12.5794097561",4bf58dd8d48988d14e941735,American Restaurant
5a6389113fcee8601a23d676,Mosaik,55.63008000000001,12.577062,"55.6294040269,12.5762270933","55.6312006961,12.5794097561",4bf58dd8d48988d1c0941735,Mediterranean Restaurant
561e9718498e27a32401373a,Loft GastroGrill,55.629754358599996,12.578648897799999,"55.6294040269,12.5762270933","55.6312006961,12.5794097561",4bf58dd8d48988d1df931735,BBQ Joint
4be2bd19d27a20a1b72f905b,Milano Restaurant,55.630023701400006,12.5779945706,"55.6294040269,12.5762270933","55.6312006961,12.5794097561",4bf58dd8d48988d110941735,Italian Restaurant
581093ff38fa7b69e43d21b0,Palæo,55.630247999999995,12.578465699999999,"55.6294040269,12.5762270933","55.6312006961,12.5794097561",4bf58dd8d48988d1c4941735,Restaurant
4dd3b396e4cd61541484aa88,Personalekantinen,55.631147,12.578177,"55.6294040269,12.5762270933","55.6312006961,12.5794097561",4d4b7105d754a06374d81259,Food
4da9c83e5da3ba8a477a53c6,Kong Venience,55.6300882421,12.578423373900002,"55.6294040269,12.5762270933","55.6312006961,12.5794097561",4bf58dd8d48988d16d941735,Café
4d0b5d37d823b1f7d7eae85c,Café La Vento,55.629994993500006,12.5780914472,"55.6294040269,12.5762270933","55.6312006961,12.5794097561",4bf58dd8d48988d14e941735,American Restaurant
4c7bd8983badb1f7d0085654,Sushi Bar,55.6301696986,12.5782917168,"55.6294040269,12.5762270933","55.6312006961,12.5794097561",4bf58dd8d48988d142941735,Asian Restaurant
58a08e8434935555b0ba78f7,Sushibar,55.629938,12.577985,"55.6294040269,12.5762270933","55.6312006961,12.5794097561",4bf58dd8d48988d1d2941735,Sushi Restaurant
562a14a7498edac0ffc33309,Nespresso,55.630806353500006,12.577972412100001,"55.6294040269,12.5762270933","55.6312006961,12.5794097561",4bf58dd8d48988d1e0931735,Coffee Shop
4b7be0e4f964a520c9712fe3,Bagel & Baguette Factory,55.6300616933,12.578046533699998,"55.6294040269,12.5762270933","55.6312006961,12.5794097561",4bf58dd8d48988d179941735,Bagel Shop
4b62f6b4f964a520125b2ae3,Kong Kaffe,55.6300259331,12.5781884377,"55.6294040269,12.5762270933","55.6312006961,12.5794097561",4bf58dd8d48988d16d941735,Café
54707e32498e6225273e24cc,Kalles Kaffe,55.6307320782,12.5781272076,"55.6294040269,12.5762270933","55.6312006961,12.5794097561",4bf58dd8d48988d16d941735,Café
4ce7cb859f776ea8a7055a22,Chili Shawarma,55.630029799700004,12.577014981300001,"55.6294040269,12.5762270933","55.6312006961,12.5794097561",4bf58dd8d48988d16e941735,Fast Food Restaurant
4b66e415f964a520042f2be3,Mammamia,55.6300143909,12.578019154300002,"55.6294040269,12.5762270933","55.6312006961,12.5794097561",4bf58dd8d48988d16d941735,Café
4bb71d562f70c9b68b4c8630,Kentucky Fried Chicken,55.629979000000006,12.577904,"55.6294040269,12.5762270933","55.6312006961,12.5794097561",4bf58dd8d48988d16e941735,Fast Food Restaurant
530a0fb4498e3b4e07f38ddd,My Fro'Yo Cup,55.630156219700005,12.5780582573,"55.6294040269,12.5762270933","55.6312006961,12.5794097561",512e7cae91d4cbb4e5efe0af,Frozen Yogurt Shop
4dc7b91b7d8b14fb46602537,Tasty Fresh Food,55.631158112600005,12.5767311942,"55.6294040269,12.5762270933","55.6312006961,12.5794097561",4bf58dd8d48988d120951735,Food Court
562ce6fd498ec03db1ad82b8,Svaneke Is,55.630056999999994,12.577288000000001,"55.6294040269,12.5762270933","55.6312006961,12.5794097561",4bf58dd8d48988d1c9941735,Ice Cream Shop
576170d4cd106a213446b14e,Hansens Is-Bar,55.630556999999996,12.578560000000001,"55.6294040269,12.5762270933","55.6312006961,12.5794097561",4bf58dd8d48988d16d941735,Café
59902a4f4febd5423e010b78,sanne's kaffevogn,55.630095,12.577115,"55.6294040269,12.5762270933","55.6312006961,12.5794097561",4bf58dd8d48988d1e0931735,Coffee Shop
589da1e1110d031349af1961,Breakfast all Day,55.629884,12.57748,"55.6294040269,12.5762270933","55.6312006961,12.5794097561",4bf58dd8d48988d143941735,Breakfast Spot
58989dd48ae3633850c09651,South Indian,55.630035,12.577970500000001,"55.6294040269,12.5762270933","55.6312006961,12.5794097561",4bf58dd8d48988d10f941735,Indian Restaurant
4e340034b0fb17f64f88b310,Kjaerstrup Chokolade,55.6303121149,12.577722731700002,"55.6294040269,12.5762270933","55.6312006961,12.5794097561",52f2ab2ebcbc57f1066b8b31,Chocolate Shop
4d0a42c186b0236a7066b806,Bøfhus,55.6300041767,12.5779263528,"55.6294040269,12.5762270933","55.6312006961,12.5794097561",4bf58dd8d48988d1cc941735,Steakhouse
4efb166e775b54cdb7a99027,Cafe Shake It,55.6304372411,12.5783142327,"55.6294040269,12.5762270933","55.6312006961,12.5794097561",4bf58dd8d48988d16d941735,Café
4d78de9471a68cfae27e0c86,Coldstone,55.6302047246,12.5852104142,"55.6294040269,12.5848198888","55.6312006961,12.5880025516",4bf58dd8d48988d1c9941735,Ice Cream Shop
4f48d0ed7b0c1e73da188a7d,Fire fly,55.6310728464,12.5998163223,"55.6294040269,12.5991412148","55.6312006961,12.6023238775",4bf58dd8d48988d111941735,Japanese Restaurant
4f6dfde7e4b08d8da6527d23,Firefly Japansk Teppanyaki Restaurant,55.63034322319999,12.601257585499999,"55.6294040269,12.5991412148","55.6312006961,12.6023238775",4bf58dd8d48988d111941735,Japanese Restaurant
4d089f23e554721eb4b6c2f8,Tårnby Café Sanwich,55.630528571300005,12.6008845955,"55.6294040269,12.5991412148","55.6312006961,12.6023238775",4bf58dd8d48988d16d941735,Café
52014483498e0993905e5f8d,Hot Food,55.629902,12.644630000000001,"55.6294040269,12.6421051925","55.6312006961,12.6452878553",4bf58dd8d48988d146941735,Deli / Bodega
50691baae4b0cdb230fd3a1e,Eyecom Copenhagen Airport,55.6302375793,12.6462001801,"55.6294040269,12.6449694577","55.6312006961,12.6481521205",4bf58dd8d48988d16d941735,Café
4ba3416cf964a520f03138e3,Baresso Coffee,55.6297050616,12.6493514651,"55.6294040269,12.6478337229","55.6312006961,12.6510163857",4bf58dd8d48988d1e0931735,Coffee Shop
5abe0a76cd441c726e2af8c6,Pret A Manger,55.629604,12.64917,"55.6294040269,12.6478337229","55.6312006961,12.6510163857",4bf58dd8d48988d1c5941735,Sandwich Place
50ca02c5245f2d4aa8c2c3b3,Horizon All Day Restaurant,55.6302765016,12.6507483137,"55.6294040269,12.6478337229","55.6312006961,12.6510163857",56aa371be4b08b9a8d573538,Theme Restaurant
4e1dbc1b14955b99c41961d5,SAS-Kantinen 4. Sal Lufthavnen.,55.629615614799995,12.6494121082,"55.6294040269,12.6478337229","55.6312006961,12.6510163857",4bf58dd8d48988d1c4941735,Restaurant
4ee391a4e4b059cb771d1de0,Hamlet,55.6302050209,12.6507299555,"55.6294040269,12.6478337229","55.6312006961,12.6510163857",4bf58dd8d48988d1c4941735,Restaurant
50ca02c1245f2d4aa8c2b820,Axis Bar & Lounge,55.630259394,12.650736658800001,"55.6294040269,12.6478337229","55.6312006961,12.6510163857",4bf58dd8d48988d1c4941735,Restaurant
58fbaaff916bc14579c410d6,Il Capo Del Forno,55.632194999999996,12.489042,"55.6310210292,12.4874397185","55.6328176983,12.4906225126",4bf58dd8d48988d1ca941735,Pizza Place
55d8a1cd498ecc02598368b6,Absolut Sushi,55.631887,12.489195,"55.6310210292,12.4874397185","55.6328176983,12.4906225126",4bf58dd8d48988d1d2941735,Sushi Restaurant
4c7a8c66bd346dcb7cbdf8ef,China Vietnam House,55.631931952600006,12.4887763572,"55.6310210292,12.4874397185","55.6328176983,12.4906225126",4bf58dd8d48988d145941735,Chinese Restaurant
4c83c4ed2f1c236aa68e4543,Soya Sushi,55.632064024399995,12.489297396600001,"55.6310210292,12.4874397185","55.6328176983,12.4906225126",4bf58dd8d48988d111941735,Japanese Restaurant
5832a2b48d8e99259af27a92,Zoégas Coffee Corner,55.631574,12.573233,"55.6310210292,12.5705068364","55.6328176983,12.5736896306",5665c7b9498e7d8a4f2c0f06,Corporate Coffee Shop
515dafdde4b0d7a8c4b6b565,Rambla Bar & Grill,55.6313740125,12.5751356449,"55.6310210292,12.5733712198","55.6328176983,12.5765540139",4bf58dd8d48988d1db931735,Tapas Restaurant
58d3b15713c22350a6f4d803,Bilka Bager & Food To Go,55.631214,12.576536,"55.6310210292,12.5733712198","55.6328176983,12.5765540139",4bf58dd8d48988d16a941735,Bakery
5718d9a5498ec3bca474b039,Cabinn Metro Café,55.631755000000005,12.577547000000001,"55.6310210292,12.5762356032","55.6328176983,12.5794183973",4bf58dd8d48988d16d941735,Café
5050217ae4b0eacd3de78a63,Caféen KLP huset,55.631908585699996,12.579086280699999,"55.6310210292,12.5762356032","55.6328176983,12.5794183973",4bf58dd8d48988d16d941735,Café
523b12de498ef0a9ed040423,Sund Bid,55.6320926837,12.5798208728,"55.6310210292,12.5790999866","55.6328176983,12.5822827807",4bf58dd8d48988d179941735,Bagel Shop
52407a7311d2f8b35509e62b,Sundbid,55.632169,12.580281,"55.6310210292,12.5790999866","55.6328176983,12.5822827807",4bf58dd8d48988d1c5941735,Sandwich Place
4cf010d97db3224bcf69302e,Kantinen I Klp-huset.,55.6317405,12.5795415875,"55.6310210292,12.5790999866","55.6328176983,12.5822827807",4bf58dd8d48988d128941735,Cafeteria
4dea5887ae60e9892355b8a7,Shanghai Grill,55.632128,12.621097,"55.6310210292,12.6192013538","55.6328176983,12.6223841480",4bf58dd8d48988d16e941735,Fast Food Restaurant
50853222e4b0354c5b1fa611,Bataillionen,55.6340762767,12.4483905194,"55.6326380314,12.4473415427","55.6344347006,12.4505244682",4bf58dd8d48988d16d941735,Café
4f7852cfe4b042108392b0bd,Botan's pizza,55.6344273194,12.4924362758,"55.6326380314,12.4903090665","55.6344347006,12.4934919920",4bf58dd8d48988d1ca941735,Pizza Place
4cb872e5dd41a35d34d2daa0,Roma Pizzaria,55.633883999999995,12.491589,"55.6326380314,12.4903090665","55.6344347006,12.4934919920",4bf58dd8d48988d1ca941735,Pizza Place
5399ce1e498efdb7bfa2d6bb,Kaffekværnen,55.6329366863,12.5732913675,"55.6326380314,12.5705151108","55.6344347006,12.5736980363",4bf58dd8d48988d1e0931735,Coffee Shop
5b4f86b7ee712000399b5659,moo-moo isbar,55.633159,12.581418,"55.6326380314,12.5791086155","55.6344347006,12.5822915410",4bf58dd8d48988d1c9941735,Ice Cream Shop
4e456dc7183849317e68034c,Visa Sushi,55.6328427415,12.5797949183,"55.6326380314,12.5791086155","55.6344347006,12.5822915410",4bf58dd8d48988d1d2941735,Sushi Restaurant
57471c49498e1cbc21f53d6f,Rajissimo,55.63316999999999,12.588014,"55.6326380314,12.5848376187","55.6344347006,12.5880205442",4bf58dd8d48988d1c9941735,Ice Cream Shop
4e4568ffe4cd9d94fb13da4c,Tårnby Pizzaria,55.6338549876,12.6088189902,"55.6326380314,12.6077536314","55.6344347006,12.6109365568",4bf58dd8d48988d1ca941735,Pizza Place
59da2989037be1208e1db235,Bodenhoff Bageri,55.633998999999996,12.610318,"55.6326380314,12.6077536314","55.6344347006,12.6109365568",4bf58dd8d48988d16a941735,Bakery
4c62d98eeb82d13a775c06d6,Restaurant SAS-Klubben,55.6332439944,12.638682839400001,"55.6326380314,12.6363986472","55.6344347006,12.6395815727",4bf58dd8d48988d1c6941735,Scandinavian Restaurant
4daef05d6e81e2dffdd28129,Grillen I Baghaven,55.634322315,12.647046326099998,"55.6326380314,12.6449921519","55.6344347006,12.6481750774",4bf58dd8d48988d1df931735,BBQ Joint
4e023e851838cb6a1ad0ad19,Rasmus & Sine - Kolonutten,55.63536800000001,12.391452000000001,"55.6342550337,12.3900523386","55.6360517028,12.3932353955",4bf58dd8d48988d16f941735,Hot Dog Joint
5afff2a08a6f17002ca00c13,Grab A Bagel,55.634613,12.492042999999999,"55.6342550337,12.4903140316","55.6360517028,12.4934970884",4bf58dd8d48988d179941735,Bagel Shop
4fe385b0e4b0f20130e7310d,Rasoi - Indian Cuisine,55.6351648042,12.5819545326,"55.6342550337,12.5791172454","55.6360517028,12.5823003022",4bf58dd8d48988d10f941735,Indian Restaurant
5a2ae05e86bc490bd23f93b1,El Mirador,55.635290000000005,12.582255,"55.6342550337,12.5791172454","55.6360517028,12.5823003022",4bf58dd8d48988d107941735,Argentinian Restaurant
5329dad0498e98c2eb580895,Chilis pizza,55.634629000000004,12.58847,"55.6342550337,12.5877111048","55.6360517028,12.5908941616",4bf58dd8d48988d1ca941735,Pizza Place
4c0a6cea6071a5931779df32,Chili's,55.634573426,12.5884544849,"55.6342550337,12.5877111048","55.6360517028,12.5908941616",4bf58dd8d48988d1ca941735,Pizza Place
536fa3fe498e33148e1c70c2,Yan Yan,55.635608875500004,12.6136597089,"55.6342550337,12.6106280632","55.6360517028,12.6138111200",4bf58dd8d48988d145941735,Chinese Restaurant
596629d14f0e5877f203edac,Cheesecake Huset,55.634952,12.620127,"55.6342550337,12.6192219226","55.6360517028,12.6224049794",4bf58dd8d48988d16a941735,Bakery
5279f8e611d222d932741ef9,"Øens Smørrebrød, Kastrup",55.635332999999996,12.620041,"55.6342550337,12.6192219226","55.6360517028,12.6224049794",4f04af1f2fb6e1c99f3db0bb,Turkish Restaurant
575d9a36498e708747ab82f4,Korsvejens Pizza,55.635428000000005,12.619969000000001,"55.6342550337,12.6192219226","55.6360517028,12.6224049794",4bf58dd8d48988d1ca941735,Pizza Place
4cc9b9575c17b60c43ef0a05,Da Massimo Pizza,55.635124347200005,12.635868518299999,"55.6342550337,12.6335450216","55.6360517028,12.6367280784",4bf58dd8d48988d110941735,Italian Restaurant
52b7048c498edd84a6fbf7d1,Thai-Takeaway,55.635369205,12.6357512048,"55.6342550337,12.6335450216","55.6360517028,12.6367280784",4bf58dd8d48988d149941735,Thai Restaurant
4d0a3fcfacd4a1cde8f68093,Seher's Pizza,55.6345137387,12.636399188599999,"55.6342550337,12.6335450216","55.6360517028,12.6367280784",4bf58dd8d48988d16e941735,Fast Food Restaurant
534823d6498e314c6e2bc8cf,Thai take away,55.635202,12.636019000000001,"55.6342550337,12.6335450216","55.6360517028,12.6367280784",4bf58dd8d48988d149941735,Thai Restaurant
5125079be4b008f7beeab34f,Kineseren,55.635949,12.635088,"55.6342550337,12.6335450216","55.6360517028,12.6367280784",4bf58dd8d48988d145941735,Chinese Restaurant
583f3a4e4f10691900aad902,BBQ Steakhouse,55.636030000000005,12.642468,"55.6342550337,12.6421388810","55.6360517028,12.6453219378",4bf58dd8d48988d16e941735,Fast Food Restaurant
4cb9ee01f50e224b4c93f0fb,French Chicken,55.6370988757,12.4798332779,"55.6358720359,12.4788600451","55.6376687051,12.4820432333",4bf58dd8d48988d16e941735,Fast Food Restaurant
4c9c925b03133704582756d5,Pang's Smørrebrød,55.637142000000004,12.479485,"55.6358720359,12.4788600451","55.6376687051,12.4820432333",4bf58dd8d48988d1c6941735,Scandinavian Restaurant
5aad4b8b0868a22591ffbd2a,yoki sushi,55.637223,12.479904,"55.6358720359,12.4788600451","55.6376687051,12.4820432333",4bf58dd8d48988d1d2941735,Sushi Restaurant
4b93f61cf964a520215d34e3,thai king,55.6369696611,12.4801922698,"55.6358720359,12.4788600451","55.6376687051,12.4820432333",4bf58dd8d48988d149941735,Thai Restaurant
4e81ab52be7b86178ef4c94c,Hot & Cool,55.6373840254,12.4799448003,"55.6358720359,12.4788600451","55.6376687051,12.4820432333",4bf58dd8d48988d115941735,Middle Eastern Restaurant
4c5d8cf72815c9286812b567,Mama Olga,55.636908,12.479978,"55.6358720359,12.4788600451","55.6376687051,12.4820432333",4bf58dd8d48988d16e941735,Fast Food Restaurant
5bc46e2be4c459003a92b169,Hvidovre Kebab Og Grill,55.637145999999994,12.479566,"55.6358720359,12.4788600451","55.6376687051,12.4820432333",5283c7b4e4b094cb91ec88d7,Kebab Restaurant
58a5b563c45ee32047c29f5f,Orang Utan Coffee,55.637203,12.577909,"55.6358720359,12.5762611381","55.6376687051,12.5794443263",4bf58dd8d48988d1e0931735,Coffee Shop
519ca355498e68cf04b7fd9b,Bella Center @ Kantinen,55.63748199999999,12.578084,"55.6358720359,12.5762611381","55.6376687051,12.5794443263",4bf58dd8d48988d1c4941735,Restaurant
4d8a1f06f607a093ea68f886,Bøfhuset,55.636208999999994,12.580457000000001,"55.6358720359,12.5791258761","55.6376687051,12.5823090644",4bf58dd8d48988d1c4941735,Restaurant
4c402f55ff711b8d23f80f05,Mario's Pizza,55.6360594273,12.6023752991,"55.6358720359,12.6020437804","55.6376687051,12.6052269686",4bf58dd8d48988d1ca941735,Pizza Place
574aecf8498eeaadc71aab56,Domino's Pizza,55.636058999999996,12.619314,"55.6358720359,12.6163674705","55.6376687051,12.6195506587",4bf58dd8d48988d1ca941735,Pizza Place
566db462498e14f3577123a7,WildNWok,55.636462,12.618953999999999,"55.6358720359,12.6163674705","55.6376687051,12.6195506587",4bf58dd8d48988d149941735,Thai Restaurant
59a9913667a9fe481e646f5d,Pizzeria Mondo,55.636217,12.631955,"55.6358720359,12.6306911606","55.6376687051,12.6338743489",4bf58dd8d48988d1ca941735,Pizza Place
531343c7498ee35865457d4d,Marmaris pizzeria 2,55.636226,12.631772999999999,"55.6358720359,12.6306911606","55.6376687051,12.6338743489",4bf58dd8d48988d1ca941735,Pizza Place
4d30696b789a8cfacaf52ec6,Skottegårdens Slagter,55.637636,12.633346000000001,"55.6358720359,12.6306911606","55.6376687051,12.6338743489",4bf58dd8d48988d1c6941735,Scandinavian Restaurant
4d8f2df76174a0931e52d8e3,Kastrupgrillen,55.6374224001,12.6346198875,"55.6358720359,12.6335558987","55.6376687051,12.6367390869",4bf58dd8d48988d16e941735,Fast Food Restaurant
4d66a76656746dcb014649ff,Fiorentina Pizza & Grill,55.636316,12.642374,"55.6358720359,12.6392853747","55.6376687051,12.6424685630",4bf58dd8d48988d1ca941735,Pizza Place
4fb51f38e4b0a0f95a238ca2,Cafe Le perr,55.6373053166,12.6419866304,"55.6358720359,12.6392853747","55.6376687051,12.6424685630",4bf58dd8d48988d1c0941735,Mediterranean Restaurant
4d0bbdcf6aa05481feb0ebaa,Jin Yuan,55.6368648492,12.641670136199998,"55.6358720359,12.6392853747","55.6376687051,12.6424685630",4bf58dd8d48988d145941735,Chinese Restaurant
5c02e5451fa763002cdd9aaa,Lahore Kebab,55.636738,12.641732000000001,"55.6358720359,12.6392853747","55.6376687051,12.6424685630",5283c7b4e4b094cb91ec88d7,Kebab Restaurant
53d38030498eb6c951347ab4,Chili grill kebab,55.6365579005,12.6418270029,"55.6358720359,12.6392853747","55.6376687051,12.6424685630",5283c7b4e4b094cb91ec88d7,Kebab Restaurant
5374ed56498e1fe2c8c10964,Allé kroen,55.6373955763,12.6425958671,"55.6358720359,12.6421501128","55.6376687051,12.6453333010",4bf58dd8d48988d1c4941735,Restaurant
512cf309e4b0a8adf76c995c,SpiseStuen,55.63610163600001,12.642502797899999,"55.6358720359,12.6421501128","55.6376687051,12.6453333010",4bf58dd8d48988d1c5941735,Sandwich Place
57308e88498eb9b098871294,Conradi's Steakhouse,55.63606,12.64744,"55.6358720359,12.6450148508","55.6376687051,12.6481980390",4bf58dd8d48988d1cc941735,Steakhouse
5aba31756bd36b71fd467b18,Funk is,55.636340000000004,12.647103999999999,"55.6358720359,12.6450148508","55.6376687051,12.6481980390",4bf58dd8d48988d1c9941735,Ice Cream Shop
5875f43d18dc5371cdbc9965,Q8,55.63776028,12.47806808,"55.6374890381,12.4759996820","55.6392857073,12.4791830016",4f04ae1f2fb6e1c99f3db0ba,Car Wash
4d3a9e6d6de7721e0070f049,Basseriet,55.6389793674,12.478554063299999,"55.6374890381,12.4759996820","55.6392857073,12.4791830016",4bf58dd8d48988d143941735,Breakfast Spot
4b5ad33df964a5204bd628e3,Cafe Victoria,55.6391784476,12.4794936546,"55.6374890381,12.4788645383","55.6392857073,12.4820478579",4bf58dd8d48988d16d941735,Café
4c4f021a92b6a593e7fade70,Domino's Pizza,55.639231,12.4792948025,"55.6374890381,12.4788645383","55.6392857073,12.4820478579",4bf58dd8d48988d1ca941735,Pizza Place
4ced5fc6b80da09320932100,Pizzacentret,55.639171999999995,12.479252,"55.6374890381,12.4788645383","55.6392857073,12.4820478579",4bf58dd8d48988d1ca941735,Pizza Place
570673c4498e043316f28f97,Tutten På Mellemfortet,55.63776800000001,12.542639,"55.6374890381,12.5418913762","55.6392857073,12.5450746958",4bf58dd8d48988d1c6941735,Scandinavian Restaurant
500842acc84c614d5a86a889,Havnens kebab,55.6384370244,12.542309760999999,"55.6374890381,12.5418913762","55.6392857073,12.5450746958",4bf58dd8d48988d115941735,Middle Eastern Restaurant
5048fe8fe4b0fd6dcf349156,Bella Vista Restaurant,55.638771615100005,12.5782022384,"55.6374890381,12.5762696515","55.6392857073,12.5794529711",4bf58dd8d48988d1c4941735,Restaurant
508e4500e4b06f6d1a6d5d9f,Dynamic Kiosk,55.638739799999996,12.5777397,"55.6374890381,12.5762696515","55.6392857073,12.5794529711",4bf58dd8d48988d16a941735,Bakery
57af0fde498ed2678c56d818,Singular,55.638701,12.580278999999999,"55.6374890381,12.5791345077","55.6392857073,12.5823178274",4bf58dd8d48988d16d941735,Café
520e22a611d2a24193cd4c0c,Øens Økologiske Madvogn,55.638490000000004,12.582922,"55.6374890381,12.5819993640","55.6392857073,12.5851826836",4bf58dd8d48988d16e941735,Fast Food Restaurant
4b7c0244f964a5204b782fe3,Dino's Pizza,55.6389456829,12.5989580154,"55.6374890381,12.5963236454","55.6392857073,12.5995069650",4bf58dd8d48988d16e941735,Fast Food Restaurant
58b31e0014f8f47dba9c34ed,Strada Britannico,55.638824,12.599317999999998,"55.6374890381,12.5963236454","55.6392857073,12.5995069650",4bf58dd8d48988d1ca941735,Pizza Place
4c4f23501b8e1b8dce0c5628,Det Lille Pizzahus,55.6377092592,12.636503134100002,"55.6374890381,12.6335667769","55.6392857073,12.6367500965",4bf58dd8d48988d1ca941735,Pizza Place
4ebd58fd8b81967ad1e38f25,Ye Sushi,55.6383082482,12.635313918,"55.6374890381,12.6335667769","55.6392857073,12.6367500965",4bf58dd8d48988d1d2941735,Sushi Restaurant
5298704a498edd5b3e7dbcf9,Cafe Hanne,55.63847382310001,12.634139906500002,"55.6374890381,12.6335667769","55.6392857073,12.6367500965",4bf58dd8d48988d16d941735,Café
4db2fe560cb6729b6a75d8f7,metal grillen,55.639118999999994,12.63538,"55.6374890381,12.6335667769","55.6392857073,12.6367500965",4bf58dd8d48988d16e941735,Fast Food Restaurant
4c95123f38dd8cfa3733cf62,Pizza & Burger House,55.6387473696,12.6341419625,"55.6374890381,12.6335667769","55.6392857073,12.6367500965",4bf58dd8d48988d1ca941735,Pizza Place
4c9ee02d542b224bbdc3f89f,Air Konditoriet,55.6381285545,12.6414000959,"55.6374890381,12.6392964894","55.6392857073,12.6424798090",4bf58dd8d48988d16a941735,Bakery
50c03c36e4b0db1a2b263cbf,Skottegårdens Bageri,55.6379675122,12.641078600999998,"55.6374890381,12.6392964894","55.6392857073,12.6424798090",4bf58dd8d48988d16a941735,Bakery
4c6844697963be9a3901cdbc,The Sushi Knife,55.638236,12.640619000000001,"55.6374890381,12.6392964894","55.6392857073,12.6424798090",4bf58dd8d48988d111941735,Japanese Restaurant
4fc22a92e4b07ac9fce477f8,Pølsevognen Ved Stenstykkevej,55.6396292488,12.497936940899999,"55.6391060404,12.4960588790","55.6409027096,12.4992423301",4bf58dd8d48988d1cb941735,Food Truck
4caf9d79f2dbef3b70c278e5,Havnens Grill og Pizzaria,55.639866000000005,12.540376,"55.6391060404,12.5390334969","55.6409027096,12.5422169479",4bf58dd8d48988d115941735,Middle Eastern Restaurant
4e704edab61c17d19ab7e96c,BM Restaurant,55.639689531,12.5778261434,"55.6391060404,12.5762781657","55.6409027096,12.5794616167",4bf58dd8d48988d143941735,Breakfast Spot
57b0fd0c498eb1af32b126a6,Basalt,55.6396844372,12.5777578354,"55.6391060404,12.5762781657","55.6409027096,12.5794616167",4bf58dd8d48988d1c4941735,Restaurant
4f453308e4b0e16ae5d23358,Library Restaurant,55.639708658400004,12.5778436661,"55.6391060404,12.5762781657","55.6409027096,12.5794616167",4bf58dd8d48988d1c6941735,Scandinavian Restaurant
51129c57e4b0ac14164efb31,Grill & Classics,55.639577,12.577897,"55.6391060404,12.5762781657","55.6409027096,12.5794616167",4bf58dd8d48988d1cc941735,Steakhouse
4d94ceb5cf46224b46989d94,Chicago Roasthouse,55.640144670299996,12.5889234329,"55.6391060404,12.5877380638","55.6409027096,12.5909215148",4bf58dd8d48988d14e941735,American Restaurant
502543c5e4b097314db6c315,Esperia Pizzabar,55.640374735900004,12.6175832748,"55.6391060404,12.6163878090","55.6409027096,12.6195712601",4bf58dd8d48988d1ca941735,Pizza Place
4c3758c62c8020a12cd58800,The weber Grill,55.639936999999996,12.641860000000001,"55.6391060404,12.6393076052","55.6409027096,12.6424910563",4bf58dd8d48988d14e941735,American Restaurant
52d5254311d21c5a8879d7b4,byens pizza & sandwich,55.6410854868,12.407260194200001,"55.6407230426,12.4043811135","55.6425197118,12.4075646959",4bf58dd8d48988d1ca941735,Pizza Place
5193d41b498ec9f598a1a88a,The Burger,55.641597999999995,12.458941000000001,"55.6407230426,12.4559527837","55.6425197118,12.4591363661",4bf58dd8d48988d16c941735,Burger Joint
4bead19d61aca593b7318400,The Sandwich,55.641554000000006,12.459022000000001,"55.6407230426,12.4559527837","55.6425197118,12.4591363661",4bf58dd8d48988d1c5941735,Sandwich Place
4d1cd21ac50e6ea892d6d5b8,Rådhus Chokolade,55.641346999999996,12.478621,"55.6407230426,12.4760084332","55.6425197118,12.4791920156",4bf58dd8d48988d1c9941735,Ice Cream Shop
4dc8288eb0fb5556cd317e43,Glad Mad,55.6409776211,12.499739,"55.6407230426,12.4989291755","55.6425197118,12.5021127580",4bf58dd8d48988d147941735,Diner
4c2f5d663896e21ed2bfe390,Visa Sushi,55.641571534499995,12.581292356099999,"55.6407230426,12.5791517736","55.6425197118,12.5823353560",4bf58dd8d48988d1d2941735,Sushi Restaurant
589e0a4251d19e06ceb4a5cd,Mon Amour Deli,55.642138,12.590778,"55.6407230426,12.5877470520","55.6425197118,12.5909306344",4bf58dd8d48988d1c4941735,Restaurant
57ded8ba498ee48cef97aa3c,Agerlandsvej,55.64113199999999,12.595456,"55.6407230426,12.5934772375","55.6425197118,12.5966608200",52e81612bcbc57f1066b7a00,Comfort Food Restaurant
4cbb38b37148f04d0113e1ab,Bistro Grill,55.6414404364,12.5985717773,"55.6407230426,12.5963423303","55.6425197118,12.5995259128",4bf58dd8d48988d16c941735,Burger Joint
4c0677765753c9286eeb3af1,Gadekøkken,55.6412345647,12.6145523787,"55.6407230426,12.6135328871","55.6425197118,12.6167164695",4bf58dd8d48988d16f941735,Hot Dog Joint
4c516ca59d642d7ff41082dd,Gylles Gadekøkken,55.641381,12.615551,"55.6407230426,12.6135328871","55.6425197118,12.6167164695",4bf58dd8d48988d16f941735,Hot Dog Joint
4e0d888714956c6284f11cff,Frikadellen,55.64255233,12.53497419,"55.6423400449,12.5333170308","55.6441367140,12.5365007447",4bf58dd8d48988d16c941735,Burger Joint
5b2fbd3e6bd36b002c88b1d3,Café Slusen,55.642590000000006,12.552669,"55.6423400449,12.5505082972","55.6441367140,12.5536920111",4bf58dd8d48988d16d941735,Café
4d6502af823ca35d4930fa88,Alladin Pizzaria & Grill,55.6435182931,12.5915050473,"55.6423400449,12.5906212521","55.6441367140,12.5938049660",4bf58dd8d48988d1ca941735,Pizza Place
4bf626e25efe2d7fb1c26634,Kringlevrideren,55.643594022600006,12.59157849,"55.6423400449,12.5906212521","55.6441367140,12.5938049660",4bf58dd8d48988d16a941735,Bakery
51974cd6498e01d9f6db76f8,Fido's Pølse & Sandwichbar,55.6432,12.5913,"55.6423400449,12.5906212521","55.6441367140,12.5938049660",4bf58dd8d48988d16e941735,Fast Food Restaurant
5709203b498e3d3dfc9fffab,Aladdins Pizzaria & Grillbar,55.643502000000005,12.591324,"55.6423400449,12.5906212521","55.6441367140,12.5938049660",4bf58dd8d48988d1ca941735,Pizza Place
4dd2c1c3227159fef25299aa,Lone & Kern,55.64270804069999,12.6056889874,"55.6423400449,12.6049473074","55.6441367140,12.6081310213",4bf58dd8d48988d1c8941735,African Restaurant
58cd4a0bef46946d744f366e,restaurant filini,55.643628,12.610499,"55.6423400449,12.6078125185","55.6441367140,12.6109962324",4bf58dd8d48988d110941735,Italian Restaurant
58a733961b36d431c01ea4e6,Amager pizza palace,55.643947,12.615679,"55.6423400449,12.6135429406","55.6441367140,12.6167266545",4bf58dd8d48988d1ca941735,Pizza Place
4c43240ccc410f470cbdad61,Bombay Spicy,55.644022,12.615388000000001,"55.6423400449,12.6135429406","55.6441367140,12.6167266545",4bf58dd8d48988d10f941735,Indian Restaurant
4f07f8dce4b026656dc00934,Guldbageren,55.644023895299995,12.6289901733,"55.6423400449,12.6278689960","55.6441367140,12.6310527099",4bf58dd8d48988d16a941735,Bakery
5b45e941835c9a002cb70838,Tinas Pølser,55.644503,12.373949,"55.6439570471,12.3728653294","55.6457537163,12.3760491747",4bf58dd8d48988d16e941735,Fast Food Restaurant
4cbeb54b9ca854817619b216,Cafe Mødestedet,55.644192000000004,12.373594,"55.6439570471,12.3728653294","55.6457537163,12.3760491747",4bf58dd8d48988d16e941735,Fast Food Restaurant
4ec5228e61af4438d1286ae0,Max Kaffehjørne,55.645690918,12.3960542679,"55.6439570471,12.3929226348","55.6457537163,12.3961064802",4bf58dd8d48988d1e0931735,Coffee Shop
4c77917e93faa0932225f1fb,Ringager,55.644739,12.396643,"55.6439570471,12.3957879642","55.6457537163,12.3989718095",4bf58dd8d48988d1c4941735,Restaurant
4b74749df964a520b9dd2de3,McDonald's,55.6449794817,12.460246854000001,"55.6439570471,12.4588252100","55.6457537163,12.4620090554",4bf58dd8d48988d16e941735,Fast Food Restaurant
4cc171dced0337049a26ae23,HomeExpresso.dk,55.6456317584,12.460751885899999,"55.6439570471,12.4588252100","55.6457537163,12.4620090554",4bf58dd8d48988d1e0931735,Coffee Shop
546c5190498ee87b20893980,Konditori Antoinette,55.644388912,12.478544688800001,"55.6439570471,12.4760171862","55.6457537163,12.4792010315",4bf58dd8d48988d16a941735,Bakery
53ae6a94498e1475af06e79e,Den Glade Bager,55.64441299439999,12.478364944500001,"55.6439570471,12.4760171862","55.6457537163,12.4792010315",4bf58dd8d48988d16a941735,Bakery
5be53bb8286fda002ce52ef0,Det Gyldne Brød,55.64441,12.478424,"55.6439570471,12.4760171862","55.6457537163,12.4792010315",4bf58dd8d48988d16a941735,Bakery
4ed5eeb0722eff15bfcae7b0,PS Catering,55.6449396964,12.4780147226,"55.6439570471,12.4760171862","55.6457537163,12.4792010315",4bf58dd8d48988d1c6941735,Scandinavian Restaurant
4f1c729ce4b044fd36966ddb,Daisy's Køkken,55.645586,12.503692,"55.6439570471,12.5018051504","55.6457537163,12.5049889957",4bf58dd8d48988d1ca941735,Pizza Place
4e73231ed16472c03703c67d,Kebabvognen,55.644388752,12.5436180018,"55.6439570471,12.5419197613","55.6457537163,12.5451036067",4bf58dd8d48988d1cb941735,Food Truck
508fc280e4b0e439368e53f5,Metro's Cafeterie,55.64569,12.546892999999999,"55.6439570471,12.5447850907","55.6457537163,12.5479689360",4bf58dd8d48988d1c4941735,Restaurant
4e01d329fa764068a36d9270,Sannes Pølsebar 2,55.645486,12.547815,"55.6439570471,12.5447850907","55.6457537163,12.5479689360",4bf58dd8d48988d1cb941735,Food Truck
5b0c0e3f59c423002cb38a7f,T’s Kitchen,55.6442450136,12.5499981719,"55.6439570471,12.5476504201","55.6457537163,12.5508342654",4bf58dd8d48988d1cb941735,Food Truck
57403a28498e139048fa247f,Sjøbeck øl & vand,55.644431000000004,12.553064,"55.6439570471,12.5505157494","55.6457537163,12.5536995948",4bf58dd8d48988d1c6941735,Scandinavian Restaurant
5905d85506fb607961c85932,Baghaven Marketenderi,55.64564,12.589126,"55.6439570471,12.5877650310","55.6457537163,12.5909488764",4bf58dd8d48988d16d941735,Café
5aa55ae14a1cc021994b1ccf,Hollywood,55.644599,12.615012,"55.6439570471,12.6135529952","55.6457537163,12.6167368406",4bf58dd8d48988d1ca941735,Pizza Place
4b8818f2f964a52093df31e3,Den kinesiske mur,55.6454418471,12.615031446700002,"55.6439570471,12.6135529952","55.6457537163,12.6167368406",4bf58dd8d48988d145941735,Chinese Restaurant
54a3d1ee498ebb025f5f35b3,Vi Viet,55.64475899999999,12.615159,"55.6439570471,12.6135529952","55.6457537163,12.6167368406",4bf58dd8d48988d14a941735,Vietnamese Restaurant
4dbcefc86e810768bf6c052e,Bagerbolle,55.644534,12.615185,"55.6439570471,12.6135529952","55.6457537163,12.6167368406",4bf58dd8d48988d16a941735,Bakery
4e32b44d52b151d5686fb228,Blomstergårdens Konditori,55.644653000000005,12.615097,"55.6439570471,12.6135529952","55.6457537163,12.6167368406",4bf58dd8d48988d16a941735,Bakery
4da96f9d5da3ba8a4770de54,Brasserie Salt & Pepper,55.645255187,12.6372513519,"55.6439570471,12.6364756301","55.6457537163,12.6396594754",4bf58dd8d48988d1d5941735,Hotel Bar
4dcc08f152b17cba4fb5c6cb,Købmandsgårdens Pizza House,55.64577877520001,12.4098408222,"55.6455740494,12.4072508195","55.6473707185,12.4104347963",4bf58dd8d48988d1ca941735,Pizza Place
517faa94e4b0f920d0ed5156,Købmagergårdens Pizzeria,55.6458091736,12.4094924927,"55.6455740494,12.4072508195","55.6473707185,12.4104347963",4bf58dd8d48988d1ca941735,Pizza Place
4ea7dd6002d50d150e79b8a0,Brasserie B,55.646901,12.417858,"55.6455740494,12.4158471625","55.6473707185,12.4190311393",4bf58dd8d48988d120951735,Food Court
511f3f18e4b0a1ec77283a3c,Restaurant Belvedere,55.646248,12.45931,"55.6455740494,12.4588288774","55.6473707185,12.4620128542",4bf58dd8d48988d1c4941735,Restaurant
4d54bd2e9e508cfa2d92f79a,Ved Mortens Nespresso Maskine,55.647084,12.477273,"55.6455740494,12.4760215633","55.6473707185,12.4792055401",4bf58dd8d48988d16d941735,Café
4e6f6eb4149506c77afecebe,Mortens Kitchen,55.646924,12.477696,"55.6455740494,12.4760215633","55.6473707185,12.4792055401",4d4b7105d754a06374d81259,Food
4ffb1629e4b01ead03d481ad,tarteletten,55.6469652223,12.517564475599999,"55.6455740494,12.5161378305","55.6473707185,12.5193218073",4bf58dd8d48988d1c4941735,Restaurant
5356535c498e7b79dc964570,Cafe Karen,55.6468290809,12.5302705353,"55.6455740494,12.5275996212","55.6473707185,12.5307835979",4bf58dd8d48988d16d941735,Café
4e148f9452b1695f9930374b,Lneurocom Kantine,55.6459823,12.541352466700001,"55.6455740494,12.5390614118","55.6473707185,12.5422453886",4d4b7105d754a06374d81259,Food
4dfb5063628460789532daab,Riccos Kaffebar,55.6464848879,12.5493302094,"55.6455740494,12.5476577548","55.6473707185,12.5508417315",4bf58dd8d48988d1e0931735,Coffee Shop
57321322498e2aa8066cbc35,La Focaccia,55.647298,12.549711,"55.6455740494,12.5476577548","55.6473707185,12.5508417315",4bf58dd8d48988d1ca941735,Pizza Place
531a0544498e46e2dcd79e71,Sukuri Sushi,55.6468695182,12.5493896096,"55.6455740494,12.5476577548","55.6473707185,12.5508417315",4bf58dd8d48988d1d2941735,Sushi Restaurant
598dd5ca0a464d2c7690f3ee,Vandvid,55.64725,12.550351,"55.6455740494,12.5476577548","55.6473707185,12.5508417315",4bf58dd8d48988d1c4941735,Restaurant
551fe6b7498e0412ab2fdc31,Hansens Is-Bar,55.646934077299996,12.5495526133,"55.6455740494,12.5476577548","55.6473707185,12.5508417315",4bf58dd8d48988d1c9941735,Ice Cream Shop
583b32096b0cdb59090c5231,Pick A Deli,55.646944075600004,12.5498574972,"55.6455740494,12.5476577548","55.6473707185,12.5508417315",4bf58dd8d48988d1c5941735,Sandwich Place
4ef679c302d5abdcbab53e37,Topasgangens Kronjuvel,55.6465037159,12.5879157473,"55.6455740494,12.5849085743","55.6473707185,12.5880925511",4d4ae6fc7a7b7dea34424761,Fried Chicken Joint
53033bfa498e6b611e1ee27e,kopenhagennews,55.646352,12.58636,"55.6455740494,12.5849085743","55.6473707185,12.5880925511",4f04af1f2fb6e1c99f3db0bb,Turkish Restaurant
54df5c9c498edd66b40cd0b1,Baglokalet,55.6464017023,12.5990588245,"55.6455740494,12.5963703649","55.6473707185,12.5995543417",4bf58dd8d48988d1c4941735,Restaurant
4c39950aae2da593c5c902c6,Svigermekanikken,55.6458452825,12.609354062000001,"55.6455740494,12.6078321556","55.6473707185,12.6110161324",4bf58dd8d48988d10d941735,German Restaurant
53a6cd00498e92f6ecfae95b,Øens Kaffebar,55.6461,12.613493,"55.6455740494,12.6106976032","55.6473707185,12.6138815800",4bf58dd8d48988d1e0931735,Coffee Shop
4fa2c744e4b0e8e3877ab5fb,Sundby Grill & Pizza,55.646214,12.613733,"55.6455740494,12.6106976032","55.6473707185,12.6138815800",4bf58dd8d48988d145941735,Chinese Restaurant
4cd283e325ee6dcb1661440f,La Miga Bageri,55.64726700000001,12.6135778,"55.6455740494,12.6106976032","55.6473707185,12.6138815800",4bf58dd8d48988d16a941735,Bakery
4be6a9bb2457a593f005ad15,Grill Pølser Brøndby Stadion,55.64797900000001,12.417666,"55.6471910516,12.4158490555","55.6489877208,12.4190331638",4bf58dd8d48988d16e941735,Fast Food Restaurant
4be6acce910020a1e582d414,1964,55.648884566199996,12.4200364478,"55.6471910516,12.4187146215","55.6489877208,12.4218987298",4bf58dd8d48988d11d941735,Sports Bar
4dd3f9a71f6e5374d6e5d81e,Brøndby IF - Klubhuset,55.64809,12.41967235,"55.6471910516,12.4187146215","55.6489877208,12.4218987298",4bf58dd8d48988d128941735,Cafeteria
4da6d1a7cda1480291c19f1f,Kantinen på Hvidovre Hospital,55.6481936996,12.4662956546,"55.6471910516,12.4645636770","55.6489877208,12.4677477853",4bf58dd8d48988d16d941735,Café
4dd91a32d22d38ef43106fa4,Hvidovre Hospital Café,55.6481795048,12.466085373499999,"55.6471910516,12.4645636770","55.6489877208,12.4677477853",4bf58dd8d48988d16d941735,Café
4e71e6e045dd2c5c1a64fa89,Bager,55.6480507076,12.468732321300001,"55.6471910516,12.4674292430","55.6489877208,12.4706133513",4bf58dd8d48988d16a941735,Bakery
4d89c98fbc848cfa09c0c92b,Hvidovre Hospital Personale Kantine,55.64793989,12.47201007,"55.6471910516,12.4702948090","55.6489877208,12.4734789173",4bf58dd8d48988d147941735,Diner
4e49415ed164155c0e090140,Hvidovre Grill & Smørrebrød,55.648374,12.476191,"55.6471910516,12.4731603750","55.6489877208,12.4763444832",4d4b7105d754a06374d81259,Food
503d2a0ce4b081ce9effdb77,Pizza 11-02,55.6482700879,12.4969962252,"55.6471910516,12.4960849027","55.6489877208,12.4992690110",4bf58dd8d48988d1ca941735,Pizza Place
5665b2ba498e91cb4fc7915a,Formaggio Pizzaria,55.647648,12.526384,"55.6471910516,12.5247405624","55.6489877208,12.5279246707",4bf58dd8d48988d1ca941735,Pizza Place
4faeb015e4b08260e3fe9856,Muttis Køkken,55.647919594799994,12.52920755,"55.6471910516,12.5276061284","55.6489877208,12.5307902367",4bf58dd8d48988d147941735,Diner
4ff9cd56e4b0211bc3c9afae,Mozarts Grill,55.6486194242,12.5306208975,"55.6471910516,12.5276061284","55.6489877208,12.5307902367",4bf58dd8d48988d145941735,Chinese Restaurant
56597445498e8409234c4655,Rallys,55.648449753,12.5323047259,"55.6471910516,12.5304716944","55.6489877208,12.5336558026",4bf58dd8d48988d16d941735,Café
4e632f76d4c06542ab47b9ff,Mozart Bageren,55.648597645100004,12.5325007352,"55.6471910516,12.5304716944","55.6489877208,12.5336558026",4bf58dd8d48988d16a941735,Bakery
4cd2eaf3df88a35d0bad6ba0,Roma Pizzaria,55.648573637,12.5341773033,"55.6471910516,12.5333372603","55.6489877208,12.5365213686",4bf58dd8d48988d1ca941735,Pizza Place
4cecf47d8604a1cd1c83efc0,Kantinen - Telenor,55.6481691515,12.5432304052,"55.6471910516,12.5419339583","55.6489877208,12.5451180665",4bf58dd8d48988d128941735,Cafeteria
59982e0b4acb197693ee90a7,Mille's Minis,55.6479598409,12.5533497334,"55.6471910516,12.5505306562","55.6489877208,12.5537147644",4bf58dd8d48988d1d0941735,Dessert Shop
5b228f8fe1f0aa002cbf3289,Yum Yoga & Café,55.647736,12.552131,"55.6471910516,12.5505306562","55.6489877208,12.5537147644",4bf58dd8d48988d102941735,Yoga Studio
52585e2311d23579d0baee17,Parma Pizza,55.648870521099994,12.6131479343,"55.6471910516,12.6107075416","55.6489877208,12.6138916498",4bf58dd8d48988d1ca941735,Pizza Place
4dba9e5c43a1b9dbe87d84eb,New York Sandwich,55.64867099999999,12.613037,"55.6471910516,12.6107075416","55.6489877208,12.6138916498",4bf58dd8d48988d1c5941735,Sandwich Place
5ab69aa5e0c0c92721596b3e,Roots Café,55.64873000000001,12.613439,"55.6471910516,12.6107075416","55.6489877208,12.6138916498",4bf58dd8d48988d16d941735,Café
56584dd9498efbd1a49029d6,Baresso,55.647434999999994,12.611207,"55.6471910516,12.6107075416","55.6489877208,12.6138916498",4bf58dd8d48988d1e0931735,Coffee Shop
4fc7965de4b02d1d47d05cdf,Tandoori Kebab & Grill,55.6488086217,12.613289793,"55.6471910516,12.6107075416","55.6489877208,12.6138916498",4bf58dd8d48988d10f941735,Indian Restaurant
590b84281de76577cccbe7f0,Ali baba grill,55.648771999999994,12.613481,"55.6471910516,12.6107075416","55.6489877208,12.6138916498",5283c7b4e4b094cb91ec88d7,Kebab Restaurant
4ccaa07e1ce5236aaa2ec065,JK Mad & Madder,55.6486020132,12.6134803911,"55.6471910516,12.6107075416","55.6489877208,12.6138916498",4bf58dd8d48988d1c5941735,Sandwich Place
542fed8e498efd2e4b5512db,Sweetbites,55.648825,12.613257,"55.6471910516,12.6107075416","55.6489877208,12.6138916498",4eb1bd1c3b7b55596b4a748f,Filipino Restaurant
520d51e911d278f948df358e,5'øren Pizza,55.647449,12.635092,"55.6471910516,12.6336320693","55.6489877208,12.6368161776",4bf58dd8d48988d1ca941735,Pizza Place
4ca1baf746978cfabb46be7f,Sundby Grill House,55.64755600000001,12.635122,"55.6471910516,12.6336320693","55.6489877208,12.6368161776",4bf58dd8d48988d16c941735,Burger Joint
4c55bb3e06901b8db452fb4d,Kastrup Grill,55.64782613,12.6399046183,"55.6471910516,12.6393632013","55.6489877208,12.6425473095",4bf58dd8d48988d16c941735,Burger Joint
4c8b70be52a98cfa76cf35e9,Allehånde Café,55.6479687933,12.649141241099999,"55.6471910516,12.6479598992","55.6489877208,12.6511440074",4bf58dd8d48988d16d941735,Café
592828cfaa6c9522998d5cae,Cafe Baaden,55.647681999999996,12.648686999999999,"55.6471910516,12.6479598992","55.6489877208,12.6511440074",4bf58dd8d48988d16d941735,Café
4cf562b966585481839cc398,Il Santo,55.65041899999999,12.49042,"55.6488080539,12.4874930562","55.6506047230,12.4906772959",4bf58dd8d48988d16e941735,Fast Food Restaurant
598f3b754940bc65f0518d7b,Milano Pizza,55.650572,12.500907000000002,"55.6488080539,12.4989557933","55.6506047230,12.5021400331",4bf58dd8d48988d1ca941735,Pizza Place
4baf6635f964a520f0fc3be3,McDonald's,55.6502094526,12.5090331337,"55.6488080539,12.5075528462","55.6506047230,12.5107370860",4bf58dd8d48988d16e941735,Fast Food Restaurant
4f5e3851e4b01014bc5dfca7,valby hallens cafeteria,55.649499713400004,12.516065714100002,"55.6488080539,12.5132842148","55.6506047230,12.5164684546",4bf58dd8d48988d147941735,Diner
4ca0bfa2031337043e8f7dd5,Dilans pizzeria,55.6497662933,12.5285032427,"55.6488080539,12.5276126363","55.6506047230,12.5307968761",4bf58dd8d48988d1ca941735,Pizza Place
4cd47092aeb1224b007c1cff,La Corona,55.6504087867,12.528472791199999,"55.6488080539,12.5276126363","55.6506047230,12.5307968761",4bf58dd8d48988d1ca941735,Pizza Place
59d0ea230336930aa82a695a,Bagerdygtigt,55.650223,12.536031,"55.6488080539,12.5333440049","55.6506047230,12.5365282447",4bf58dd8d48988d16a941735,Bakery
5ae44442c97f28002cf45205,southie,55.649564,12.534747,"55.6488080539,12.5333440049","55.6506047230,12.5365282447",4bf58dd8d48988d16d941735,Café
596bc908b9a5a85aa61b750c,2450,55.649485999999996,12.535002,"55.6488080539,12.5333440049","55.6506047230,12.5365282447",4bf58dd8d48988d1ca941735,Pizza Place
4ea0514177c8b08983dc82e8,Bella Sydhavn Pizzaria,55.649522999999995,12.535133,"55.6488080539,12.5333440049","55.6506047230,12.5365282447",4bf58dd8d48988d1ca941735,Pizza Place
50b0be15e4b063e34278a442,Chefen's køkken,55.6496810913,12.5350675583,"55.6488080539,12.5333440049","55.6506047230,12.5365282447",4bf58dd8d48988d1c2941735,Molecular Gastronomy Restaurant
5193886a498e81da72168203,Kaffepletten,55.650408999999996,12.542835,"55.6488080539,12.5419410578","55.6506047230,12.5451252975",4bf58dd8d48988d1e0931735,Coffee Shop
505065e1e4b0ad2f5b0eceed,AAU-CPH Kantine,55.650337193,12.5428951793,"55.6488080539,12.5419410578","55.6506047230,12.5451252975",4bf58dd8d48988d147941735,Diner
4c97bd6c72dd224bc819b791,Barrafina,55.649384,12.543489,"55.6488080539,12.5419410578","55.6506047230,12.5451252975",4bf58dd8d48988d150941735,Spanish Restaurant
4c5a7bc55c57c9b6f2621d4a,TV 2 Teglholmens kantine,55.6497207568,12.547757188399999,"55.6488080539,12.5448067421","55.6506047230,12.5479909818",4bf58dd8d48988d120951735,Food Court
5b94d6cee4c459002ce906e7,Dottir Yoga And Juice Bar,55.649914,12.553984,"55.6488080539,12.5534037950","55.6506047230,12.5565880347",4bf58dd8d48988d112941735,Juice Bar
4c1658917f7f2d7f2bd1e368,Pølsevogn Dybbølsbro st.,55.65057431,12.562634188499999,"55.6488080539,12.5620008479","55.6506047230,12.5651850876",4bf58dd8d48988d1cb941735,Food Truck
4b3a525df964a520986425e3,Ingolfs Kaffebar,55.65015155729999,12.612030698699998,"55.6488080539,12.6107174809","55.6506047230,12.6139017207",4bf58dd8d48988d16d941735,Café
5555d778498e4fd12aae1da5,Lille Kebabhus,55.649414,12.61304,"55.6488080539,12.6107174809","55.6506047230,12.6139017207",4bf58dd8d48988d10b941735,Falafel Restaurant
55578fe4498e636be9127e66,Jasmin rice,55.6499068134,12.6125105624,"55.6488080539,12.6107174809","55.6506047230,12.6139017207",4bf58dd8d48988d149941735,Thai Restaurant
4ddf62d1227140b904ffa22b,Café Two O Two,55.6501003613,12.6125678307,"55.6488080539,12.6107174809","55.6506047230,12.6139017207",4bf58dd8d48988d16d941735,Café
52d439f9498e2f0eef9b6b4c,Cafe Arguileh,55.6490939013,12.613068556199998,"55.6488080539,12.6107174809","55.6506047230,12.6139017207",4bf58dd8d48988d16d941735,Café
4c1df0b0b9f876b0775e7e46,Orlando's,55.649147184700006,12.61277496,"55.6488080539,12.6107174809","55.6506047230,12.6139017207",4bf58dd8d48988d1ca941735,Pizza Place
57938013498e3ca0525cc39d,Foodtruck Festival,55.650211353900005,12.64624851,"55.6488080539,12.6451056925","55.6506047230,12.6482899322",4bf58dd8d48988d1cb941735,Food Truck
4db55eb1fa8c350240f79fb5,Beduinoasen,55.649055000000004,12.646213000000001,"55.6488080539,12.6451056925","55.6506047230,12.6482899322",4bf58dd8d48988d16e941735,Fast Food Restaurant
4b72bf13f964a52094862de3,The Bagel Store,55.651196794300006,12.5020300706,"55.6504250561,12.4989611185","55.6522217253,12.5021454898",4bf58dd8d48988d179941735,Bagel Shop
4e6ded7462e1ce648726fba6,Hawal Restaurant & Pizzeria,55.651064,12.502089999999999,"55.6504250561,12.4989611185","55.6522217253,12.5021454898",4bf58dd8d48988d16e941735,Fast Food Restaurant
4d942eba078ef04df5f92478,Guld Bageren,55.651138,12.502350999999999,"55.6504250561,12.5018269212","55.6522217253,12.5050112924",4bf58dd8d48988d1bc941735,Cupcake Shop
4c5ed8b07f661b8d37154f1c,"Restaurant Saigon, Valby",55.652052695900004,12.502708818199999,"55.6504250561,12.5018269212","55.6522217253,12.5050112924",4bf58dd8d48988d14a941735,Vietnamese Restaurant
573ed386498eb2804700b9c5,Hos Maren,55.65133,12.502346000000001,"55.6504250561,12.5018269212","55.6522217253,12.5050112924",4bf58dd8d48988d128941735,Cafeteria
511bc9bee4b0ce305ded7e62,Thali by Hassan K.,55.651196,12.502867,"55.6504250561,12.5018269212","55.6522217253,12.5050112924",4bf58dd8d48988d10f941735,Indian Restaurant
5172b888498e2885df8043e8,Goga Takeaway & Grill,55.651128382299994,12.5075302607,"55.6504250561,12.5046927238","55.6522217253,12.5078770951",4bf58dd8d48988d10f941735,Indian Restaurant
57064990498e51373ee2725d,Burger King,55.651108561,12.5093363634,"55.6504250561,12.5075585264","55.6522217253,12.5107428977",4bf58dd8d48988d16e941735,Fast Food Restaurant
4d63f56961dda1439b182418,Barakat,55.6507536184,12.5083272266,"55.6504250561,12.5075585264","55.6522217253,12.5107428977",4bf58dd8d48988d16e941735,Fast Food Restaurant
4bb07a49f964a52062473ce3,Sjælørs Kebab & Burger House,55.651743,12.526997,"55.6504250561,12.5247533422","55.6522217253,12.5279377135",4bf58dd8d48988d10b941735,Falafel Restaurant
5712445d498e108402163667,copenhagen markets,55.6516033504,12.5266660102,"55.6504250561,12.5247533422","55.6522217253,12.5279377135",4bf58dd8d48988d1cb941735,Food Truck
52a4a943498e4e88f1a50ce3,Sjælør Kebab,55.65195385,12.5271593062,"55.6504250561,12.5247533422","55.6522217253,12.5279377135",5283c7b4e4b094cb91ec88d7,Kebab Restaurant
4ca85b7114c337047a2fd33b,Palermo Pizza,55.651884921000004,12.5378707056,"55.6504250561,12.5362165528","55.6522217253,12.5394009240",4bf58dd8d48988d1ca941735,Pizza Place
4c871e6ad92ea0934ed37372,Engelbert Petersens Bageri,55.65220792979999,12.537957002799999,"55.6504250561,12.5362165528","55.6522217253,12.5394009240",4bf58dd8d48988d16a941735,Bakery
4ee8841593ad8b68e982d1f0,Saray Café,55.6509765195,12.536747370699999,"55.6504250561,12.5362165528","55.6522217253,12.5394009240",4bf58dd8d48988d115941735,Middle Eastern Restaurant
4fe847f0e4b0756d138a1527,Pølseboden på Borgbjergsvej,55.651256000000004,12.536845,"55.6504250561,12.5362165528","55.6522217253,12.5394009240",4bf58dd8d48988d16f941735,Hot Dog Joint
4f7c3d4ce4b02cc04dbf79ee,Kæmpe Hotdog,55.651135,12.537019,"55.6504250561,12.5362165528","55.6522217253,12.5394009240",4bf58dd8d48988d16f941735,Hot Dog Joint
51e7b283498e8348ca25e196,Sydhavnens Pølsevogn,55.651304,12.53685,"55.6504250561,12.5362165528","55.6522217253,12.5394009240",4bf58dd8d48988d16c941735,Burger Joint
5a202e5fa6031c51c77f764e,Juicy,55.651731000000005,12.537711,"55.6504250561,12.5362165528","55.6522217253,12.5394009240",4bf58dd8d48988d112941735,Juice Bar
5a0c2cc8aa6c95741b26fe02,ISS Kantine Gjensidige,55.650876000000004,12.543054,"55.6504250561,12.5419481580","55.6522217253,12.5451325293",4bf58dd8d48988d1c4941735,Restaurant
4caeec171463a143392890a9,DONG Kantinen,55.651444,12.543935000000001,"55.6504250561,12.5419481580","55.6522217253,12.5451325293",4bf58dd8d48988d128941735,Cafeteria
4fd37796e4b0bd432877418d,Bålpladsen,55.651601,12.57757,"55.6504250561,12.5763377897","55.6522217253,12.5795221609",4bf58dd8d48988d16f941735,Hot Dog Joint
5513e897498ec22c310ec7ee,Eat Green's,55.651153,12.592507000000001,"55.6504250561,12.5906668028","55.6522217253,12.5938511741",4bf58dd8d48988d1c5941735,Sandwich Place
532344fb11d2e9f6a01c04b9,super marked,55.651818999999996,12.593160000000001,"55.6504250561,12.5906668028","55.6522217253,12.5938511741",4bf58dd8d48988d1c7941735,Snack Place
4f536718e4b0776d6590862b,Steak House,55.6516038761,12.5927998232,"55.6504250561,12.5906668028","55.6522217253,12.5938511741",4bf58dd8d48988d1ca941735,Pizza Place
53628b20498ea303a9243377,Vildglad,55.6520144464,12.6108125526,"55.6504250561,12.6078616186","55.6522217253,12.6110459899",4bf58dd8d48988d1c9941735,Ice Cream Shop
55e49af0498e302ffb6ff880,Pizza Art,55.6514834768,12.6119951627,"55.6504250561,12.6107274213","55.6522217253,12.6139117925",4bf58dd8d48988d1cb941735,Food Truck
5b39184cc66666002c3617d5,Nordic Noodle,55.65101,12.612078,"55.6504250561,12.6107274213","55.6522217253,12.6139117925",4bf58dd8d48988d1d1941735,Noodle House
4ba3c73df964a520475e38e3,Il molino Pizzeria,55.6510805639,12.6121865693,"55.6504250561,12.6107274213","55.6522217253,12.6139117925",4bf58dd8d48988d1ca941735,Pizza Place
54a19db1498eec334695ddef,Punjabi Indian take-away,55.6512599532,12.6120999176,"55.6504250561,12.6107274213","55.6522217253,12.6139117925",4bf58dd8d48988d10f941735,Indian Restaurant
4c13ba1f82a3c9b667eefbf8,Dragon Grill Express,55.651330179700004,12.612237269000001,"55.6504250561,12.6107274213","55.6522217253,12.6139117925",4bf58dd8d48988d16e941735,Fast Food Restaurant
5a47a48b03132048f1fbb2ed,Coconut,55.6518,12.61165,"55.6504250561,12.6107274213","55.6522217253,12.6139117925",4bf58dd8d48988d149941735,Thai Restaurant
56e45a80498e556c897466f2,Forno a legna ecologico,55.651782999999995,12.612091,"55.6504250561,12.6107274213","55.6522217253,12.6139117925",4bf58dd8d48988d1ca941735,Pizza Place
4e22d67a45dd950bb033487e,Vikingegryden,55.6511099149,12.6123817103,"55.6504250561,12.6107274213","55.6522217253,12.6139117925",4bf58dd8d48988d16c941735,Burger Joint
539d9539498ea6a82335167e,Fru Munk,55.6517863834,12.6119434904,"55.6504250561,12.6107274213","55.6522217253,12.6139117925",4bf58dd8d48988d1e0931735,Coffee Shop
4bcb03d3b6c49c74b85b9191,Vild Glad,55.651674270600004,12.611746788,"55.6504250561,12.6107274213","55.6522217253,12.6139117925",4bf58dd8d48988d1c9941735,Ice Cream Shop
4c9a4d61eaa5a143321fcbe4,Buggi Burger,55.65094200000001,12.614616,"55.6504250561,12.6135932239","55.6522217253,12.6167775952",4bf58dd8d48988d16c941735,Burger Joint
4cbc968290c9a1434e239cd6,Castello Pizzabar,55.651387,12.621001,"55.6504250561,12.6193248292","55.6522217253,12.6225092004",4bf58dd8d48988d16e941735,Fast Food Restaurant
4f979009e4b0bbdeb41c8b9f,Biens bageri,55.6511116028,12.620618820199999,"55.6504250561,12.6193248292","55.6522217253,12.6225092004",4bf58dd8d48988d1d0941735,Dessert Shop
4befe6603a002d7f4b7685a4,Esperia Pizzaria,55.651467000000004,12.620678,"55.6504250561,12.6193248292","55.6522217253,12.6225092004",4bf58dd8d48988d1ca941735,Pizza Place
4f129686e4b0472045f301ad,Yatsu King,55.6508172,12.6304681,"55.6504250561,12.6279222371","55.6522217253,12.6311066083",4bf58dd8d48988d1c9941735,Ice Cream Shop
4c0a98a5ffb8c9b6e4d66b61,Strandtutten,55.6506881688,12.6406376821,"55.6504250561,12.6393854476","55.6522217253,12.6425698189",4bf58dd8d48988d1c9941735,Ice Cream Shop
4daf0f856a23e6c934973ab6,Smileys,55.650932999999995,12.646554,"55.6504250561,12.6451170529","55.6522217253,12.6483014241",4bf58dd8d48988d1c9941735,Ice Cream Shop
537baed2498eed2021c20e30,Strandgolf,55.6509515999,12.6462932127,"55.6504250561,12.6451170529","55.6522217253,12.6483014241",4bf58dd8d48988d1c9941735,Ice Cream Shop
5253ee1511d241e09671cc34,Slagteren,55.653718000000005,12.402167,"55.6520420583,12.4015251308","55.6538387275,12.4047096336",4bf58dd8d48988d1c4941735,Restaurant
4b743b6ef964a520adce2de3,Kvickly,55.6533564086,12.474309106,"55.6520420583,12.4731731554","55.6538387275,12.4763576582",4bf58dd8d48988d118951735,Grocery Store
5b5b3d0db8fd9d002ca027f4,indis,55.653289,12.474260000000001,"55.6520420583,12.4731731554","55.6538387275,12.4763576582",4bf58dd8d48988d10f941735,Indian Restaurant
4cde00b470bba1cd46ba5dc4,Natteravnen,55.65334412,12.474495,"55.6520420583,12.4731731554","55.6538387275,12.4763576582",4bf58dd8d48988d16e941735,Fast Food Restaurant
57f10836498eb99ecf8ce160,Kvicklys Bager,55.653362,12.474093,"55.6520420583,12.4731731554","55.6538387275,12.4763576582",4bf58dd8d48988d16a941735,Bakery
535d476d498e1c1f310e7724,Al-Faridi Kebab & Grillhouse,55.653788,12.487749,"55.6520420583,12.4846368394","55.6538387275,12.4878213421",4bf58dd8d48988d16e941735,Fast Food Restaurant
4cb9e89c4c60a09361db42ca,Il Santo Pizzaria,55.65274300000001,12.490166,"55.6520420583,12.4875027603","55.6538387275,12.4906872631",4bf58dd8d48988d1ca941735,Pizza Place
59b45a6823a2e6344a375d12,We Do Pizza,55.6524,12.492122,"55.6520420583,12.4903686813","55.6538387275,12.4935531841",4bf58dd8d48988d1ca941735,Pizza Place
51278445e4b00b8d8307e84b,Madkartellet,55.6532981387,12.5024968898,"55.6520420583,12.5018323653","55.6538387275,12.5050168680",4bf58dd8d48988d146941735,Deli / Bodega
5aedc1bc8cdedf0025076c27,Den Gode Kok,55.65245,12.509861,"55.6520420583,12.5075642072","55.6538387275,12.5107487100",4bf58dd8d48988d16f941735,Hot Dog Joint
50c4c1b8e4b0eaecd8efa3f6,Butt's Underground Kitchen,55.6536244206,12.5104274837,"55.6520420583,12.5075642072","55.6538387275,12.5107487100",4bf58dd8d48988d10f941735,Indian Restaurant
4fcfaa36e4b0313628b78a96,Kebabvognen,55.652876,12.515888,"55.6520420583,12.5132960492","55.6538387275,12.5164805520",4bf58dd8d48988d10b941735,Falafel Restaurant
57d97479498ec8dafd5b6c8c,komida,55.653147,12.518678,"55.6520420583,12.5161619702","55.6538387275,12.5193464729",4bf58dd8d48988d16d941735,Café
5831a868102f4749ce569fb1,Kebabstation,55.652578000000005,12.51677,"55.6520420583,12.5161619702","55.6538387275,12.5193464729",4bf58dd8d48988d10b941735,Falafel Restaurant
5769b707498ed1ba6198fde2,Tülay katmer,55.65234399999999,12.517741000000001,"55.6520420583,12.5161619702","55.6538387275,12.5193464729",56aa371be4b08b9a8d57350b,Food Stand
58694ee6761b1a35b558dfec,Cafe Jacobsen,55.652930000000005,12.517017,"55.6520420583,12.5161619702","55.6538387275,12.5193464729",4bf58dd8d48988d16d941735,Café
5715fb30cd1059c705e446a8,Kocatepe Kahve Evi,55.652640000000005,12.516921,"55.6520420583,12.5161619702","55.6538387275,12.5193464729",4bf58dd8d48988d1e0931735,Coffee Shop
4b8a1f04f964a520d06032e3,Emmerys,55.6528321472,12.5205527766,"55.6520420583,12.5190278912","55.6538387275,12.5222123939",4bf58dd8d48988d16a941735,Bakery
583092ae03cf2531661c9eef,Asian Palace,55.652682999999996,12.52057,"55.6520420583,12.5190278912","55.6538387275,12.5222123939",4bf58dd8d48988d142941735,Asian Restaurant
59d5ff560fe7a06facf1df0f,Pizza Mand,55.653055,12.520551,"55.6520420583,12.5190278912","55.6538387275,12.5222123939",4bf58dd8d48988d1ca941735,Pizza Place
5776b130498e9b4c2d444072,Simply Pizza,55.653059999999996,12.520659,"55.6520420583,12.5190278912","55.6538387275,12.5222123939",4bf58dd8d48988d1ca941735,Pizza Place
4b1a8afef964a520f2eb23e3,"Den Sorte Gryde, Sydhavnen",55.65234399999999,12.53472,"55.6520420583,12.5333574961","55.6538387275,12.5365419989",4bf58dd8d48988d147941735,Diner
5c3240319ba3e5002cf0c8ab,wai mai,55.652373,12.534562,"55.6520420583,12.5333574961","55.6538387275,12.5365419989",4bf58dd8d48988d142941735,Asian Restaurant
58e7b7289f25836e27a28a13,Rumbles,55.652655,12.538942,"55.6520420583,12.5362234171","55.6538387275,12.5394079198",4bf58dd8d48988d16c941735,Burger Joint
4ccadde59b9346885f4c5141,Al Salam Slagter,55.653313,12.538461999999999,"55.6520420583,12.5362234171","55.6538387275,12.5394079198",4bf58dd8d48988d115941735,Middle Eastern Restaurant
4bae4e47f964a52057a03be3,Desi Corner,55.652838083999995,12.538846081500001,"55.6520420583,12.5362234171","55.6538387275,12.5394079198",4bf58dd8d48988d10f941735,Indian Restaurant
4bbaf6521261d13acc28eb98,Hi3G Kantine,55.65349199560001,12.5412262852,"55.6520420583,12.5390893380","55.6538387275,12.5422738408",4bf58dd8d48988d128941735,Cafeteria
50bf01d5e4b0c38f152ba4d2,Kantinen UCC Sydhavnen,55.6524557362,12.5409883616,"55.6520420583,12.5390893380","55.6538387275,12.5422738408",4bf58dd8d48988d147941735,Diner
4cd2bfa721d946882b33ec90,3 Danmark Kantinen,55.6535898313,12.5416306519,"55.6520420583,12.5390893380","55.6538387275,12.5422738408",4bf58dd8d48988d128941735,Cafeteria
4c5a6183b05c1b8dc636d8b1,YouSee Kaffebar,55.65297201,12.5445359945,"55.6520420583,12.5419552590","55.6538387275,12.5451397618",4bf58dd8d48988d1e0931735,Coffee Shop
4d19c168e190721ebd8c2b21,TDC Kantine,55.6536963378,12.543318901900001,"55.6520420583,12.5419552590","55.6538387275,12.5451397618",4bf58dd8d48988d128941735,Cafeteria
4dbfa131043706a03202a817,Sydhavns Bageri,55.6526034207,12.5432016494,"55.6520420583,12.5419552590","55.6538387275,12.5451397618",4bf58dd8d48988d16a941735,Bakery
4d4fb6ec71548cfa25af079a,TDC Satellitkantinen,55.653787566700004,12.544582328599999,"55.6520420583,12.5419552590","55.6538387275,12.5451397618",4bf58dd8d48988d128941735,Cafeteria
4c8f6903b3bcb60ce6276127,Kaffekværnen,55.653223231800006,12.5452035547,"55.6520420583,12.5448211800","55.6538387275,12.5480056828",4bf58dd8d48988d16d941735,Café
5a36b77b93bd6336833d2d88,Kellermans Cafe,55.652311,12.549386,"55.6520420583,12.5476871010","55.6538387275,12.5508716038",4bf58dd8d48988d16d941735,Café
4e7ddc06722e43be45f1962d,Grønjords Grill & Pizza Bar,55.6526818712,12.5934321722,"55.6520420583,12.5906759158","55.6538387275,12.5938604185",4bf58dd8d48988d1ca941735,Pizza Place
52a9a15811d25fe9414d3c86,Grønjords Pizzaria,55.653768093900005,12.59259756,"55.6520420583,12.5906759158","55.6538387275,12.5938604185",4bf58dd8d48988d1ca941735,Pizza Place
55333474498ea763a45349a5,Bake My Day,55.6533428244,12.602777481099999,"55.6520420583,12.6021395997","55.6538387275,12.6053241025",4bf58dd8d48988d16a941735,Bakery
4bfabb00328d76b092df14ec,Pizzeria Piccola Italia,55.653746493199996,12.6110375517,"55.6520420583,12.6078714417","55.6538387275,12.6110559444",4bf58dd8d48988d1ca941735,Pizza Place
4b71a792f964a520f4532de3,Il Gambero Rosso,55.6537094024,12.6109876717,"55.6520420583,12.6078714417","55.6538387275,12.6110559444",4bf58dd8d48988d110941735,Italian Restaurant
4d9a0ce7a2c6548145da1554,Columbia Chiken & Burger,55.65351,12.610991,"55.6520420583,12.6078714417","55.6538387275,12.6110559444",4bf58dd8d48988d1ca941735,Pizza Place
588a506765be58175b724edd,Kasai Sushi,55.652874,12.61178,"55.6520420583,12.6107373626","55.6538387275,12.6139218654",4bf58dd8d48988d1d2941735,Sushi Restaurant
4bf4cd5c98ac0f47917564a8,Eriks Bageri,55.652460999999995,12.611399,"55.6520420583,12.6107373626","55.6538387275,12.6139218654",4bf58dd8d48988d16a941735,Bakery
5602eacb498ebaaa7d178f64,Wanda,55.6528070345,12.6117189949,"55.6520420583,12.6107373626","55.6538387275,12.6139218654",4bf58dd8d48988d142941735,Asian Restaurant
4c64259cec94a593ff7a2dca,Nan Wao,55.652955000000006,12.6114,"55.6520420583,12.6107373626","55.6538387275,12.6139218654",4bf58dd8d48988d145941735,Chinese Restaurant
53ff0443498e3db8371ae4ff,Honey's Place,55.652409999999996,12.611642,"55.6520420583,12.6107373626","55.6538387275,12.6139218654",4bf58dd8d48988d1c5941735,Sandwich Place
4e341492fa76f00388c7f51e,Pappas Pizza,55.6530013706,12.6155353231,"55.6520420583,12.6136032836","55.6538387275,12.6167877864",4bf58dd8d48988d1ca941735,Pizza Place
4ddd5e60d22d28453ea8253c,Amar Pizza Burger Café,55.6537497164,12.623074638199999,"55.6520420583,12.6222010466","55.6538387275,12.6253855493",4bf58dd8d48988d1ca941735,Pizza Place
5666bf84498eabc21ae3c09a,Burger King,55.65499032140001,12.3951550711,"55.6536590606,12.3929283148","55.6554557297,12.3961129491",4bf58dd8d48988d16e941735,Fast Food Restaurant
4c17df104b8bd13a01594c83,Wiuff Bageri og Konditori,55.654406280500005,12.4015844815,"55.6536590606,12.3986603935","55.6554557297,12.4018450278",4bf58dd8d48988d16a941735,Bakery
4c95f7a7034137048e4d80ef,Brøndby Grillen,55.6542391525,12.40199285,"55.6536590606,12.4015264328","55.6554557297,12.4047110671",4bf58dd8d48988d16e941735,Fast Food Restaurant
4cdbcb1cfc9737049e29d105,Lena's Smørrebrød,55.6547721868,12.412448599100001,"55.6536590606,12.4101245508","55.6554557297,12.4133091851",4bf58dd8d48988d1c6941735,Scandinavian Restaurant
4d8f7afac479a35d246b5d97,Parmas Pizzaria,55.6544164588,12.4743307371,"55.6536590606,12.4731774164","55.6554557297,12.4763620507",4bf58dd8d48988d1ca941735,Pizza Place
551d3469498e182456225dc0,Børnemuseet,55.6553769809,12.494473351,"55.6536590606,12.4932396919","55.6554557297,12.4964243262",4bf58dd8d48988d16d941735,Café
505745bce4b088edb27fa479,Pizza Night,55.655191,12.500672999999999,"55.6536590606,12.4989717706","55.6554557297,12.5021564049",4bf58dd8d48988d16e941735,Fast Food Restaurant
5bc5a27c0457b7002c2a5507,Café Pomet,55.654001,12.504607,"55.6536590606,12.5018378099","55.6554557297,12.5050224442",4bf58dd8d48988d16d941735,Café
5ac7bcec72475061c79960b5,Gadekøkkenet,55.654869999999995,12.507347,"55.6536590606,12.5047038492","55.6554557297,12.5078884835",4bf58dd8d48988d1cb941735,Food Truck
4fca5cb0e4b010c6fcdf9087,Café Nook,55.654174804700006,12.510676384000002,"55.6536590606,12.5075698886","55.6554557297,12.5107545229",4bf58dd8d48988d16d941735,Café
589b55b280e1af47eab5a3bf,South Harbour Café,55.653879377799996,12.5385135404,"55.6536590606,12.5362302820","55.6554557297,12.5394149163",4bf58dd8d48988d16d941735,Café
4da9f56b5da3ba8a477fac8e,Meadow Garden Restaurant,55.6544518215,12.5411145522,"55.6536590606,12.5390963214","55.6554557297,12.5422809557",4bf58dd8d48988d1c4941735,Restaurant
4dc7bb8db0fb5556cd26c668,SE Pølsvogn,55.654393000000006,12.541925,"55.6536590606,12.5390963214","55.6554557297,12.5422809557",4bf58dd8d48988d1cb941735,Food Truck
55d80c95498e149d620fd79b,Breakfast,55.6549421099,12.5423013531,"55.6536590606,12.5419623607","55.6554557297,12.5451469950",4bf58dd8d48988d143941735,Breakfast Spot
4ed7714a8b81b2bf287ee128,TDC EA Bar,55.6539169806,12.545233955599999,"55.6536590606,12.5448284001","55.6554557297,12.5480130344",4bf58dd8d48988d16d941735,Café
4e0a0902b61c60b045573a19,Özac,55.65504334,12.56012374,"55.6536590606,12.5591585968","55.6554557297,12.5623432311",4bf58dd8d48988d16d941735,Café
5980b5b2acb00b7894ce7c93,Café Nöah,55.655018000000005,12.564705,"55.6536590606,12.5620246362","55.6554557297,12.5652092705",4bf58dd8d48988d16d941735,Café
4fbf7243e4b07e698d37b126,Rawmania,55.654034771400006,12.591411356199998,"55.6536590606,12.5906850296","55.6554557297,12.5938696639",4bf58dd8d48988d1d3941735,Vegetarian / Vegan Restaurant
564acd69498e24900cffb647,stegogbras.dk,55.654782,12.602457000000001,"55.6536590606,12.5992831476","55.6554557297,12.6024677819",52e81612bcbc57f1066b7a00,Comfort Food Restaurant
4be303eb63609c7402d61bff,Flintstones Pizza & Grillbar,55.65527900000001,12.60373,"55.6536590606,12.6021491870","55.6554557297,12.6053338213",4bf58dd8d48988d16e941735,Fast Food Restaurant
4cbb44bbbac93704e902f17c,Power Grill,55.654739,12.60331665,"55.6536590606,12.6021491870","55.6554557297,12.6053338213",4bf58dd8d48988d142941735,Asian Restaurant
5a7eda3a2105c314dec068aa,Bingo 156,55.654971975100004,12.6100599093,"55.6536590606,12.6078812657","55.6554557297,12.6110659000",4bf58dd8d48988d16d941735,Café
4e8d7b1930f82b1224fdf2c0,Blomsterberg Smørrebrød,55.654283692,12.610185396099999,"55.6536590606,12.6078812657","55.6554557297,12.6110659000",4bf58dd8d48988d1c6941735,Scandinavian Restaurant
4b797fdef964a520f6fc2ee3,Wan Hao,55.654363557399996,12.610527941800001,"55.6536590606,12.6078812657","55.6554557297,12.6110659000",4bf58dd8d48988d145941735,Chinese Restaurant
4cf91c0101568cfa175e24e7,Taj Mahal,55.65459391899999,12.6106605776,"55.6536590606,12.6078812657","55.6554557297,12.6110659000",4bf58dd8d48988d10f941735,Indian Restaurant
4c64cd4f3f69c9b67cc389d9,Sumo Sushi,55.654419999999995,12.610634,"55.6536590606,12.6078812657","55.6554557297,12.6110659000",4bf58dd8d48988d1d2941735,Sushi Restaurant
4dbe46f56e810768bf8a2546,Cone's Chicken Masala,55.6547941556,12.610509,"55.6536590606,12.6078812657","55.6554557297,12.6110659000",4d4ae6fc7a7b7dea34424761,Fried Chicken Joint
4d451f9d1911a093298cdfd8,Kaffe Køkkenet,55.654678000000004,12.610448,"55.6536590606,12.6078812657","55.6554557297,12.6110659000",4bf58dd8d48988d1e0931735,Coffee Shop
561a522d498ee62a492d0469,Da Danny,55.6554206255,12.6092301918,"55.6536590606,12.6078812657","55.6554557297,12.6110659000",4bf58dd8d48988d110941735,Italian Restaurant
4dbd0e474b222080d3a18149,Fies Mad,55.65473000000001,12.612972000000001,"55.6536590606,12.6107473050","55.6554557297,12.6139319393",4bf58dd8d48988d1bc941735,Cupcake Shop
4ced976af368b1f725e27bf7,Prickly Pines East,55.654669999999996,12.61322,"55.6536590606,12.6107473050","55.6554557297,12.6139319393",4bf58dd8d48988d1e0931735,Coffee Shop
4d0bc92e984a6ea8807b9364,Lucky Kid's Pizzaria,55.654693325100006,12.612926791900001,"55.6536590606,12.6107473050","55.6554557297,12.6139319393",4bf58dd8d48988d1ca941735,Pizza Place
505dd5e0e4b09d9775a84648,Gigantisk Weber Grill,55.6540936131,12.6137008016,"55.6536590606,12.6107473050","55.6554557297,12.6139319393",4bf58dd8d48988d1df931735,BBQ Joint
4c01141defa2ef3be568aa8c,Den Lille Gode Bager,55.6539444154,12.611450782,"55.6536590606,12.6107473050","55.6554557297,12.6139319393",4bf58dd8d48988d16a941735,Bakery
4d3f0e54af8ca14366eb1bf7,Mors Kødgryder,55.654458999999996,12.614464,"55.6536590606,12.6136133444","55.6554557297,12.6167979787",4bf58dd8d48988d147941735,Diner
4db9a609cda10f31e631326d,Malta Selskabslokaler,55.655370883500005,12.6165568159,"55.6536590606,12.6136133444","55.6554557297,12.6167979787",4bf58dd8d48988d1c6941735,Scandinavian Restaurant
4e82e00bf5b9279035905ca3,Kantinen Amager Hospital,55.655156999999996,12.619324,"55.6536590606,12.6164793837","55.6554557297,12.6196640180",4bf58dd8d48988d16d941735,Café
57e411b7498effe809630cf6,King of India,55.654577,12.618087,"55.6536590606,12.6164793837","55.6554557297,12.6196640180",4bf58dd8d48988d10f941735,Indian Restaurant
4fb8d16ae4b08439a076f775,3'erens IsCafe,55.654568000000005,12.649389999999999,"55.6536590606,12.6480058165","55.6554557297,12.6511904508",4bf58dd8d48988d1c9941735,Ice Cream Shop
5559d923498eb61126d8e4a4,Crêpe Kitchen,55.6544505433,12.6488041878,"55.6536590606,12.6480058165","55.6554557297,12.6511904508",52e81612bcbc57f1066b79f2,Creperie
53ff4ed3498eebee81f58d08,Frozzy,55.6568957889,12.4003156262,"55.6552760628,12.3986615772","55.6570727320,12.4018463430",4bf58dd8d48988d1c9941735,Ice Cream Shop
50c34986e4b02085d701ee3a,Catalinas fødselsdag <3,55.656677246099996,12.405218124400001,"55.6552760628,12.4043938926","55.6570727320,12.4075786585",4bf58dd8d48988d16a941735,Bakery
4cfe74c3dccef04d5bdaca9c,Engtoftegaard,55.656052,12.440746,"55.6552760628,12.4387877853","55.6570727320,12.4419725511",4bf58dd8d48988d1c4941735,Restaurant
5432bfb1498e34ea4b17397a,Hollywood Pizza & Grill,55.6564674377,12.4733638763,"55.6552760628,12.4703155202","55.6570727320,12.4735002860",4bf58dd8d48988d16e941735,Fast Food Restaurant
4f7b5674e4b07999dd175c11,holywood,55.656520843500005,12.473428726199998,"55.6552760628,12.4703155202","55.6570727320,12.4735002860",4bf58dd8d48988d1ca941735,Pizza Place
4c0e9588c6cf76b025f98051,Torve Cafe,55.657054537700006,12.4738005034,"55.6552760628,12.4731816779","55.6570727320,12.4763664437",4bf58dd8d48988d16d941735,Café
4e0854a12271dfa46bb4415f,Csc Danmark-Kantinen,55.6570158422,12.496791999300001,"55.6552760628,12.4961109397","55.6570727320,12.4992957055",4bf58dd8d48988d1c4941735,Restaurant
585a8245f595724dd5e9a958,G64,55.65565600000001,12.50647,"55.6552760628,12.5047094128","55.6570727320,12.5078941787",4bf58dd8d48988d1d3941735,Vegetarian / Vegan Restaurant
51a49167498e034cea089ad0,Vestford kitchen,55.657014000000004,12.507175,"55.6552760628,12.5047094128","55.6570727320,12.5078941787",4bf58dd8d48988d155941735,Gastropub
4c43cc3a36d6a59351b569a8,Lime Engros,55.655584,12.505243,"55.6552760628,12.5047094128","55.6570727320,12.5078941787",4bf58dd8d48988d1c4941735,Restaurant
4fabdbcae4b061bcd3b4b2fe,Arizona,55.6565429036,12.5129416052,"55.6552760628,12.5104417283","55.6570727320,12.5136264941",4bf58dd8d48988d1ca941735,Pizza Place
586bb1040393cc3f5a652a51,Kaffepausen,55.656387,12.519969,"55.6552760628,12.5190402014","55.6570727320,12.5222249673",4bf58dd8d48988d16d941735,Café
5a106157a4ba7c5f7fb7508f,Kaffehjørnet,55.656380000000006,12.520007000000001,"55.6552760628,12.5190402014","55.6570727320,12.5222249673",4bf58dd8d48988d1e0931735,Coffee Shop
4d78f6e7db7c5481201c39f2,Gasolina,55.656211,12.519894,"55.6552760628,12.5190402014","55.6570727320,12.5222249673",4bf58dd8d48988d16d941735,Café
4f86a96ee4b02900b7434e61,Sag Kantine,55.65635699999999,12.524269,"55.6552760628,12.5219063591","55.6570727320,12.5250911250",4bf58dd8d48988d1c6941735,Scandinavian Restaurant
59c8bff9ee628b11a11eb5cc,Frøken Basses Smørrebrød,55.65663000000001,12.537854,"55.6552760628,12.5362371477","55.6570727320,12.5394219136",4bf58dd8d48988d1c6941735,Scandinavian Restaurant
4e08ae41a809495e61a01cc3,Sydhavnens Pizzaria,55.6557328196,12.537475,"55.6552760628,12.5362371477","55.6570727320,12.5394219136",4bf58dd8d48988d1ca941735,Pizza Place
4d63ac7195b28cfac1dd4efa,Engelbert-Petersens Bageri,55.656618280299995,12.5380063138,"55.6552760628,12.5362371477","55.6570727320,12.5394219136",4bf58dd8d48988d16a941735,Bakery
52cda378498ebc8dbc488de0,Kampmanns Kæmpe Køkken,55.6555659347,12.5377863782,"55.6552760628,12.5362371477","55.6570727320,12.5394219136",4bf58dd8d48988d1c7941735,Snack Place
593aca090d8a0f78aa94f270,Coffee And Cake,55.656418,12.560446,"55.6552760628,12.5591664095","55.6570727320,12.5623511753",4bf58dd8d48988d1e0931735,Coffee Shop
593acba7ee712035b10c0056,Cheesecake,55.656845,12.560130000000001,"55.6552760628,12.5591664095","55.6570727320,12.5623511753",4bf58dd8d48988d1d0941735,Dessert Shop
4c0653d95753c92822af3af1,Beach Club Bryggen93,55.655776,12.565099,"55.6552760628,12.5620325672","55.6570727320,12.5652173330",4bf58dd8d48988d1e0941735,Harbor / Marina
4e57bb6ccc3f4af0a6207467,Open Air Trattoria,55.6566219041,12.5679295065,"55.6552760628,12.5648987249","55.6570727320,12.5680834908",4bf58dd8d48988d110941735,Italian Restaurant
4ed9224ab8f7fcd03eb6badc,Moulin Rouge,55.6560019776,12.5677433381,"55.6552760628,12.5648987249","55.6570727320,12.5680834908",4bf58dd8d48988d147941735,Diner
56e32cd7498e0feda3f8e41e,Metro kebab,55.6566054508,12.5889972938,"55.6552760628,12.5878279867","55.6570727320,12.5910127525",4bf58dd8d48988d1cb941735,Food Truck
50c58c6ce4b09f0683026b95,"Døgnet Rundt, DR Byen",55.655680510299995,12.5892026857,"55.6552760628,12.5878279867","55.6570727320,12.5910127525",4bf58dd8d48988d16d941735,Café
5a3cdc04c4df1d5eb247a695,Nordic Light,55.655676,12.591173,"55.6552760628,12.5906941444","55.6570727320,12.5938789102",4bf58dd8d48988d16d941735,Café
55d33ff6498e866195f02d0d,Kvickly Bageren,55.656482999999994,12.604004,"55.6552760628,12.6021587753","55.6570727320,12.6053435411",4bf58dd8d48988d16a941735,Bakery
4b96594bf964a5206ec734e3,Den Lykkelige Familie,55.655697366800005,12.604196611199999,"55.6552760628,12.6021587753","55.6570727320,12.6053435411",4bf58dd8d48988d145941735,Chinese Restaurant
4bd9b1af2e6f0f47eb840b08,Pomodoro Rosso,55.656414,12.603943,"55.6552760628,12.6021587753","55.6570727320,12.6053435411",4bf58dd8d48988d1ca941735,Pizza Place
4b97bb42f964a5205c1235e3,Thai Mad,55.656613,12.603992,"55.6552760628,12.6021587753","55.6570727320,12.6053435411",4bf58dd8d48988d149941735,Thai Restaurant
56265497498e67dd32c89243,Lagkagehuset,55.6560932796,12.6095001652,"55.6552760628,12.6078910907","55.6570727320,12.6110758566",4bf58dd8d48988d16a941735,Bakery
589b430211742023ebf616e5,Toto Vin & Spisebar,55.6558047993,12.6096573226,"55.6552760628,12.6078910907","55.6570727320,12.6110758566",4bf58dd8d48988d155941735,Gastropub
555b6a7d498e54e29f390041,Grillen Amagerbro,55.6557488827,12.6098160301,"55.6552760628,12.6078910907","55.6570727320,12.6110758566",4bf58dd8d48988d16c941735,Burger Joint
5926e979b6b04b3db711a39d,Natur Tørst,55.656693999999995,12.609205000000001,"55.6552760628,12.6078910907","55.6570727320,12.6110758566",4bf58dd8d48988d112941735,Juice Bar
